{"completed_prefixes": ["ab", "ad"], "records": [{"SEARCHVAL": "ABC HOSTEL", "BLK_NO": "3", "ROAD_NAME": "JALAN KUBOR", "BUILDING": "ABC HOSTEL", "ADDRESS": "3 JALAN KUBOR ABC HOSTEL SINGAPORE 199201", "POSTAL": "199201", "X": "30890.66215682682", "Y": "31780.07111900859", "LATITUDE": "1.303682055263236", "LONGITUDE": "103.8592925166575"}, {"SEARCHVAL": "ABC HOSTEL", "BLK_NO": "3C", "ROAD_NAME": "JALAN KUBOR", "BUILDING": "ABC HOSTEL", "ADDRESS": "3C JALAN KUBOR ABC HOSTEL SINGAPORE 199201", "POSTAL": "199201", "X": "30890.6621870948", "Y": "31780.0710887406", "LATITUDE": "1.3036820549895", "LONGITUDE": "103.8592925169295"}, {"SEARCHVAL": "ABC HOSTEL", "BLK_NO": "7A", "ROAD_NAME": "JALAN KUBOR", "BUILDING": "ABC HOSTEL", "ADDRESS": "7A JALAN KUBOR ABC HOSTEL SINGAPORE 199205", "POSTAL": "199205", "X": "30884.53219396062", "Y": "31788.95979671367", "LATITUDE": "1.303762441896028", "LONGITUDE": "103.8592374369292"}, {"SEARCHVAL": "ABC HOSTEL", "BLK_NO": "7B", "ROAD_NAME": "JALAN KUBOR", "BUILDING": "ABC HOSTEL", "ADDRESS": "7B JALAN KUBOR ABC HOSTEL SINGAPORE 199205", "POSTAL": "199205", "X": "30884.53219396062", "Y": "31788.95979671367", "LATITUDE": "1.303762441896028", "LONGITUDE": "103.8592374369292"}, {"SEARCHVAL": "ABI PLAZA", "BLK_NO": "11", "ROAD_NAME": "KEPPEL ROAD", "BUILDING": "ABI PLAZA", "ADDRESS": "11 KEPPEL ROAD ABI PLAZA SINGAPORE 089057", "POSTAL": "089057", "X": "29063.12046674825", "Y": "28399.65443602018", "LATITUDE": "1.273110870704051", "LONGITUDE": "103.8428710952676"}, {"SEARCHVAL": "ABSOLUTE MAINTENANCE BUILDING", "BLK_NO": "13", "ROAD_NAME": "KAKI BUKIT PLACE", "BUILDING": "ABSOLUTE MAINTENANCE BUILDING", "ADDRESS": "13 KAKI BUKIT PLACE ABSOLUTE MAINTENANCE BUILDING SINGAPORE 416191", "POSTAL": "416191", "X": "35865.86097609438", "Y": "35264.78352528065", "LATITUDE": "1.335195675537099", "LONGITUDE": "103.9039978544967"}, {"SEARCHVAL": "ABC BRICKWORKS MARKET & FOOD CENTRE", "BLK_NO": "6", "ROAD_NAME": "JALAN BUKIT MERAH", "BUILDING": "ABC BRICKWORKS MARKET & FOOD CENTRE", "ADDRESS": "6 JALAN BUKIT MERAH ABC BRICKWORKS MARKET & FOOD CENTRE SINGAPORE 150006", "POSTAL": "150006", "X": "25196.86438636668", "Y": "29922.51415260695", "LATITUDE": "1.286882972614765", "LONGITUDE": "103.8081312741608"}, {"SEARCHVAL": "ABC HOSTEL", "BLK_NO": "7", "ROAD_NAME": "JALAN KUBOR", "BUILDING": "ABC HOSTEL", "ADDRESS": "7 JALAN KUBOR ABC HOSTEL SINGAPORE 199205", "POSTAL": "199205", "X": "30884.5978754852", "Y": "31789.0366773922", "LATITUDE": "1.303763137171622", "LONGITUDE": "103.8592380271152"}, {"SEARCHVAL": "ABC HOSTEL", "BLK_NO": "3A", "ROAD_NAME": "JALAN KUBOR", "BUILDING": "ABC HOSTEL", "ADDRESS": "3A JALAN KUBOR ABC HOSTEL SINGAPORE 199201", "POSTAL": "199201", "X": "30890.6621870948", "Y": "31780.0710887406", "LATITUDE": "1.3036820549895", "LONGITUDE": "103.8592925169295"}, {"SEARCHVAL": "ABDULLAH SHOOKER JEWISH WELFARE HOME", "BLK_NO": "81", "ROAD_NAME": "WILKIE ROAD", "BUILDING": "ABDULLAH SHOOKER JEWISH WELFARE HOME", "ADDRESS": "81 WILKIE ROAD ABDULLAH SHOOKER JEWISH WELFARE HOME SINGAPORE 228080", "POSTAL": "228080", "X": "29544.83881762251", "Y": "31691.09493032098", "LATITUDE": "1.302877482213851", "LONGITUDE": "103.847199666966"}, {"SEARCHVAL": "ABUNDANT GRACE PRESBYTERIAN CHURCH", "BLK_NO": "240", "ROAD_NAME": "JALAN KAYU", "BUILDING": "ABUNDANT GRACE PRESBYTERIAN CHURCH", "ADDRESS": "240 JALAN KAYU ABUNDANT GRACE PRESBYTERIAN CHURCH SINGAPORE 799464", "POSTAL": "799464", "X": "32479.14458738826", "Y": "42157.31213171035", "LATITUDE": "1.397529919691384", "LONGITUDE": "103.8735673079278"}, {"SEARCHVAL": "ABC HOSTEL", "BLK_NO": "3B", "ROAD_NAME": "JALAN KUBOR", "BUILDING": "ABC HOSTEL", "ADDRESS": "3B JALAN KUBOR ABC HOSTEL SINGAPORE 199201", "POSTAL": "199201", "X": "30890.6621870948", "Y": "31780.0710887406", "LATITUDE": "1.3036820549895", "LONGITUDE": "103.8592925169295"}, {"SEARCHVAL": "ABC HOSTEL", "BLK_NO": "7C", "ROAD_NAME": "JALAN KUBOR", "BUILDING": "ABC HOSTEL", "ADDRESS": "7C JALAN KUBOR ABC HOSTEL SINGAPORE 199205", "POSTAL": "199205", "X": "30884.53219396062", "Y": "31788.95979671367", "LATITUDE": "1.303762441896028", "LONGITUDE": "103.8592374369292"}, {"SEARCHVAL": "ABELIA", "BLK_NO": "2A", "ROAD_NAME": "ARDMORE PARK", "BUILDING": "ABELIA", "ADDRESS": "2A ARDMORE PARK ABELIA SINGAPORE 259948", "POSTAL": "259948", "X": "27412.8436773289", "Y": "32442.00395528786", "LATITUDE": "1.309668471576647", "LONGITUDE": "103.828042695173"}, {"SEARCHVAL": "ABM BUILDING", "BLK_NO": "20", "ROAD_NAME": "JALAN KILANG", "BUILDING": "ABM BUILDING", "ADDRESS": "20 JALAN KILANG ABM BUILDING SINGAPORE 159418", "POSTAL": "159418", "X": "25256.21893386077", "Y": "29799.52661758475", "LATITUDE": "1.285770721866253", "LONGITUDE": "103.8086646093795"}, {"SEARCHVAL": "ABV INDUSTRIAL BUILDING", "BLK_NO": "29", "ROAD_NAME": "CHANGI SOUTH AVENUE 2", "BUILDING": "ABV INDUSTRIAL BUILDING", "ADDRESS": "29 CHANGI SOUTH AVENUE 2 ABV INDUSTRIAL BUILDING SINGAPORE 486444", "POSTAL": "486444", "X": "43119.47170615382", "Y": "34877.82551424578", "LATITUDE": "1.331693419707152", "LONGITUDE": "103.969175424772"}, {"SEARCHVAL": "ADAM FOOD CENTRE", "BLK_NO": "2", "ROAD_NAME": "ADAM ROAD", "BUILDING": "ADAM FOOD CENTRE", "ADDRESS": "2 ADAM ROAD ADAM FOOD CENTRE SINGAPORE 289876", "POSTAL": "289876", "X": "25868.50171331875", "Y": "34044.39404007979", "LATITUDE": "1.324159852595583", "LONGITUDE": "103.8141659241357"}, {"SEARCHVAL": "ADMIRALTY FLORA", "BLK_NO": "691A", "ROAD_NAME": "WOODLANDS DRIVE 73", "BUILDING": "ADMIRALTY FLORA", "ADDRESS": "691A WOODLANDS DRIVE 73 ADMIRALTY FLORA SINGAPORE 731691", "POSTAL": "731691", "X": "25033.35952298064", "Y": "46886.98968881182", "LATITUDE": "1.440303606189265", "LONGITUDE": "103.806660428381"}, {"SEARCHVAL": "ADMIRALTY MRT STATION (NS10)", "BLK_NO": "70", "ROAD_NAME": "WOODLANDS AVENUE 7", "BUILDING": "ADMIRALTY MRT STATION (NS10)", "ADDRESS": "70 WOODLANDS AVENUE 7 ADMIRALTY MRT STATION (NS10) SINGAPORE 738344", "POSTAL": "738344", "X": "24402.38662679307", "Y": "46918.50680194795", "LATITUDE": "1.440588561618472", "LONGITUDE": "103.800990519771"}, {"SEARCHVAL": "ADMIRALTY PLACE", "BLK_NO": "678", "ROAD_NAME": "WOODLANDS AVENUE 6", "BUILDING": "ADMIRALTY PLACE", "ADDRESS": "678 WOODLANDS AVENUE 6 ADMIRALTY PLACE SINGAPORE 730678", "POSTAL": "730678", "X": "24436.0586690316", "Y": "46851.62000617012", "LATITUDE": "1.439983666087329", "LONGITUDE": "103.8012931042679"}, {"SEARCHVAL": "ADMIRALTY PRIMARY SCHOOL", "BLK_NO": "11", "ROAD_NAME": "WOODLANDS CIRCLE", "BUILDING": "ADMIRALTY PRIMARY SCHOOL", "ADDRESS": "11 WOODLANDS CIRCLE ADMIRALTY PRIMARY SCHOOL SINGAPORE 738907", "POSTAL": "738907", "X": "24296.62508559227", "Y": "47144.77005947381", "LATITUDE": "1.442634790331114", "LONGITUDE": "103.800040119743"}, {"SEARCHVAL": "ADMIRAX", "BLK_NO": "8", "ROAD_NAME": "ADMIRALTY STREET", "BUILDING": "ADMIRAX", "ADDRESS": "8 ADMIRALTY STREET ADMIRAX SINGAPORE 757438", "POSTAL": "757438", "X": "26049.45773405675", "Y": "49300.87676640041", "LATITUDE": "1.462134011616305", "LONGITUDE": "103.8157908904883"}, {"SEARCHVAL": "ADRIA", "BLK_NO": "12", "ROAD_NAME": "DERBYSHIRE ROAD", "BUILDING": "ADRIA", "ADDRESS": "12 DERBYSHIRE ROAD ADRIA SINGAPORE 309466", "POSTAL": "309466", "X": "29440.09352397453", "Y": "33191.47055949084", "LATITUDE": "1.316446354954906", "LONGITUDE": "103.8462585518234"}, {"SEARCHVAL": "ADAM PARK CONDOMINIUM", "BLK_NO": "27A", "ROAD_NAME": "ADAM ROAD", "BUILDING": "ADAM PARK CONDOMINIUM", "ADDRESS": "27A ADAM ROAD ADAM PARK CONDOMINIUM SINGAPORE 289900", "POSTAL": "289900", "X": "25782.77427812759", "Y": "34473.98290197738", "LATITUDE": "1.328044895894128", "LONGITUDE": "103.8133955861108"}, {"SEARCHVAL": "ADAM PARK CONDOMINIUM", "BLK_NO": "27", "ROAD_NAME": "ADAM ROAD", "BUILDING": "ADAM PARK CONDOMINIUM", "ADDRESS": "27 ADAM ROAD ADAM PARK CONDOMINIUM SINGAPORE 289895", "POSTAL": "289895", "X": "25773.73168772366", "Y": "34451.68835267425", "LATITUDE": "1.327843271234074", "LONGITUDE": "103.8133143350865"}, {"SEARCHVAL": "ADANA @ THOMSON", "BLK_NO": "10", "ROAD_NAME": "OLD UPPER THOMSON ROAD", "BUILDING": "ADANA @ THOMSON", "ADDRESS": "10 OLD UPPER THOMSON ROAD ADANA @ THOMSON SINGAPORE 573869", "POSTAL": "573869", "X": "27392.79250017554", "Y": "39059.76479974762", "LATITUDE": "1.369517151541987", "LONGITUDE": "103.8278623928932"}, {"SEARCHVAL": "ADANA @ THOMSON", "BLK_NO": "8", "ROAD_NAME": "OLD UPPER THOMSON ROAD", "BUILDING": "ADANA @ THOMSON", "ADDRESS": "8 OLD UPPER THOMSON ROAD ADANA @ THOMSON SINGAPORE 573868", "POSTAL": "573868", "X": "27370.04166101851", "Y": "39064.18758779764", "LATITUDE": "1.369557149179187", "LONGITUDE": "103.8276579605288"}, {"SEARCHVAL": "ADMIRALTY FLORA", "BLK_NO": "691B", "ROAD_NAME": "WOODLANDS DRIVE 73", "BUILDING": "ADMIRALTY FLORA", "ADDRESS": "691B WOODLANDS DRIVE 73 ADMIRALTY FLORA SINGAPORE 732691", "POSTAL": "732691", "X": "24947.89886979852", "Y": "46886.54928964749", "LATITUDE": "1.440299614205556", "LONGITUDE": "103.8058924814006"}, {"SEARCHVAL": "ADMIRALTY GROVE", "BLK_NO": "693D", "ROAD_NAME": "WOODLANDS AVENUE 6", "BUILDING": "ADMIRALTY GROVE", "ADDRESS": "693D WOODLANDS AVENUE 6 ADMIRALTY GROVE SINGAPORE 734693", "POSTAL": "734693", "X": "24781.38585311826", "Y": "46572.20287002809", "LATITUDE": "1.437456760876831", "LONGITUDE": "103.8043962359519"}, {"SEARCHVAL": "ADMIRALTY GROVE", "BLK_NO": "694B", "ROAD_NAME": "WOODLANDS DRIVE 62", "BUILDING": "ADMIRALTY GROVE", "ADDRESS": "694B WOODLANDS DRIVE 62 ADMIRALTY GROVE SINGAPORE 732694", "POSTAL": "732694", "X": "24845.99238007516", "Y": "46758.24869437143", "LATITUDE": "1.439139299001741", "LONGITUDE": "103.804976766892"}, {"SEARCHVAL": "ADMIRALTY SECONDARY SCHOOL", "BLK_NO": "31", "ROAD_NAME": "WOODLANDS CRESCENT", "BUILDING": "ADMIRALTY SECONDARY SCHOOL", "ADDRESS": "31 WOODLANDS CRESCENT ADMIRALTY SECONDARY SCHOOL SINGAPORE 737916", "POSTAL": "737916", "X": "24559.04729370121", "Y": "47504.78735543787", "LATITUDE": "1.445890689109919", "LONGITUDE": "103.8023981965959"}, {"SEARCHVAL": "ADORA GREEN", "BLK_NO": "348D", "ROAD_NAME": "YISHUN AVENUE 11", "BUILDING": "ADORA GREEN", "ADDRESS": "348D YISHUN AVENUE 11 ADORA GREEN SINGAPORE 764348", "POSTAL": "764348", "X": "29065.93175707571", "Y": "45407.81478454731", "LATITUDE": "1.426926620975583", "LONGITUDE": "103.8428969567047"}, {"SEARCHVAL": "ADAM PARK CONDOMINIUM", "BLK_NO": "29", "ROAD_NAME": "ADAM ROAD", "BUILDING": "ADAM PARK CONDOMINIUM", "ADDRESS": "29 ADAM ROAD ADAM PARK CONDOMINIUM SINGAPORE 289901", "POSTAL": "289901", "X": "25690.53665365931", "Y": "34478.43692658469", "LATITUDE": "1.328085169645864", "LONGITUDE": "103.8125667800088"}, {"SEARCHVAL": "ADMIRALTY GROVE", "BLK_NO": "693B", "ROAD_NAME": "WOODLANDS AVENUE 6", "BUILDING": "ADMIRALTY GROVE", "ADDRESS": "693B WOODLANDS AVENUE 6 ADMIRALTY GROVE SINGAPORE 732693", "POSTAL": "732693", "X": "24765.18164589163", "Y": "46688.22922281548", "LATITUDE": "1.438506059163868", "LONGITUDE": "103.8042506123035"}, {"SEARCHVAL": "ADMIRALTY GROVE", "BLK_NO": "693A", "ROAD_NAME": "WOODLANDS AVENUE 6", "BUILDING": "ADMIRALTY GROVE", "ADDRESS": "693A WOODLANDS AVENUE 6 ADMIRALTY GROVE SINGAPORE 731693", "POSTAL": "731693", "X": "24704.77513462305", "Y": "46718.71607432328", "LATITUDE": "1.438781764135034", "LONGITUDE": "103.8037077979702"}, {"SEARCHVAL": "ADMIRALTY GROVE", "BLK_NO": "694C", "ROAD_NAME": "WOODLANDS DRIVE 62", "BUILDING": "ADMIRALTY GROVE", "ADDRESS": "694C WOODLANDS DRIVE 62 ADMIRALTY GROVE SINGAPORE 733694", "POSTAL": "733694", "X": "24928.05469538551", "Y": "46723.24313557521", "LATITUDE": "1.438822730559244", "LONGITUDE": "103.8057141799792"}, {"SEARCHVAL": "ADMIRALTY GROVE", "BLK_NO": "694A", "ROAD_NAME": "WOODLANDS DRIVE 62", "BUILDING": "ADMIRALTY GROVE", "ADDRESS": "694A WOODLANDS DRIVE 62 ADMIRALTY GROVE SINGAPORE 731694", "POSTAL": "731694", "X": "24781.32434857544", "Y": "46748.5786789339", "LATITUDE": "1.439051839554927", "LONGITUDE": "103.804395663183"}, {"SEARCHVAL": "ADMIRALTY INDUSTRIAL PARK", "BLK_NO": "19", "ROAD_NAME": "WOODLANDS INDUSTRIAL PARK E1", "BUILDING": "ADMIRALTY INDUSTRIAL PARK", "ADDRESS": "19 WOODLANDS INDUSTRIAL PARK E1 ADMIRALTY INDUSTRIAL PARK SINGAPORE 757719", "POSTAL": "757719", "X": "23833.2189254025", "Y": "48400.44493098184", "LATITUDE": "1.453990590166309", "LONGITUDE": "103.7958757746615"}, {"SEARCHVAL": "ADORA GREEN", "BLK_NO": "348A", "ROAD_NAME": "YISHUN AVENUE 11", "BUILDING": "ADORA GREEN", "ADDRESS": "348A YISHUN AVENUE 11 ADORA GREEN SINGAPORE 761348", "POSTAL": "761348", "X": "28879.21991601773", "Y": "45454.96988174133", "LATITUDE": "1.427353081024063", "LONGITUDE": "103.8412191803693"}, {"SEARCHVAL": "ADORA GREEN", "BLK_NO": "348B", "ROAD_NAME": "YISHUN AVENUE 11", "BUILDING": "ADORA GREEN", "ADDRESS": "348B YISHUN AVENUE 11 ADORA GREEN SINGAPORE 762348", "POSTAL": "762348", "X": "28963.88558060769", "Y": "45446.68268940784", "LATITUDE": "1.427278131902198", "LONGITUDE": "103.8419799791741"}, {"SEARCHVAL": "ADVANCED DISPLAY PARK", "BLK_NO": "10", "ROAD_NAME": "TAMPINES INDUSTRIAL AVENUE 3", "BUILDING": "ADVANCED DISPLAY PARK", "ADDRESS": "10 TAMPINES INDUSTRIAL AVENUE 3 ADVANCED DISPLAY PARK SINGAPORE 528798", "POSTAL": "528798", "X": "38725.53703663033", "Y": "38051.02131523192", "LATITUDE": "1.360392505443013", "LONGITUDE": "103.9296946544473"}, {"SEARCHVAL": "ADAM PARK CONDOMINIUM", "BLK_NO": "29A", "ROAD_NAME": "ADAM ROAD", "BUILDING": "ADAM PARK CONDOMINIUM", "ADDRESS": "29A ADAM ROAD ADAM PARK CONDOMINIUM SINGAPORE 289902", "POSTAL": "289902", "X": "25711.05765045527", "Y": "34512.30141266435", "LATITUDE": "1.328391429601301", "LONGITUDE": "103.8127511699157"}, {"SEARCHVAL": "ADANA @ THOMSON", "BLK_NO": "12", "ROAD_NAME": "OLD UPPER THOMSON ROAD", "BUILDING": "ADANA @ THOMSON", "ADDRESS": "12 OLD UPPER THOMSON ROAD ADANA @ THOMSON SINGAPORE 573870", "POSTAL": "573870", "X": "27416.49069695547", "Y": "39055.44858526997", "LATITUDE": "1.369478117719334", "LONGITUDE": "103.8280753379225"}, {"SEARCHVAL": "ADELPHI PARK ESTATE", "BLK_NO": "97", "ROAD_NAME": "GARDENIA ROAD", "BUILDING": "ADELPHI PARK ESTATE", "ADDRESS": "97 GARDENIA ROAD ADELPHI PARK ESTATE SINGAPORE 578870", "POSTAL": "578870", "X": "27304.05591284763", "Y": "37370.70001294836", "LATITUDE": "1.354241849935664", "LONGITUDE": "103.8270650717902"}, {"SEARCHVAL": "ADELPHI PARK ESTATE", "BLK_NO": "27", "ROAD_NAME": "JASMINE ROAD", "BUILDING": "ADELPHI PARK ESTATE", "ADDRESS": "27 JASMINE ROAD ADELPHI PARK ESTATE SINGAPORE 576590", "POSTAL": "576590", "X": "27598.46108863223", "Y": "37393.8264777828", "LATITUDE": "1.354451002882508", "LONGITUDE": "103.8297104921266"}, {"SEARCHVAL": "ADELPHI PARK ESTATE", "BLK_NO": "19", "ROAD_NAME": "ORCHID DRIVE", "BUILDING": "ADELPHI PARK ESTATE", "ADDRESS": "19 ORCHID DRIVE ADELPHI PARK ESTATE SINGAPORE 576174", "POSTAL": "576174", "X": "27468.84301882796", "Y": "37503.2403657753", "LATITUDE": "1.355440501096377", "LONGITUDE": "103.8285457880115"}, {"SEARCHVAL": "ADMIRALTY GROVE", "BLK_NO": "693C", "ROAD_NAME": "WOODLANDS AVENUE 6", "BUILDING": "ADMIRALTY GROVE", "ADDRESS": "693C WOODLANDS AVENUE 6 ADMIRALTY GROVE SINGAPORE 733693", "POSTAL": "733693", "X": "24785.13124369178", "Y": "46643.28841023892", "LATITUDE": "1.438099633087429", "LONGITUDE": "103.8044298837988"}, {"SEARCHVAL": "ADMIRALTY GROVE", "BLK_NO": "693", "ROAD_NAME": "WOODLANDS AVENUE 6", "BUILDING": "ADMIRALTY GROVE", "ADDRESS": "693 WOODLANDS AVENUE 6 ADMIRALTY GROVE SINGAPORE 730693", "POSTAL": "730693", "X": "24711.13531577401", "Y": "46641.98982293345", "LATITUDE": "1.438087880566356", "LONGITUDE": "103.8037649592718"}, {"SEARCHVAL": "ADMIRALTY VISTA", "BLK_NO": "717B", "ROAD_NAME": "WOODLANDS DRIVE 70", "BUILDING": "ADMIRALTY VISTA", "ADDRESS": "717B WOODLANDS DRIVE 70 ADMIRALTY VISTA SINGAPORE 732717", "POSTAL": "732717", "X": "24129.98603302799", "Y": "47004.94414242916", "LATITUDE": "1.441370233150061", "LONGITUDE": "103.7985427236741"}, {"SEARCHVAL": "ADORA GREEN", "BLK_NO": "347", "ROAD_NAME": "YISHUN AVENUE 11", "BUILDING": "ADORA GREEN", "ADDRESS": "347 YISHUN AVENUE 11 ADORA GREEN SINGAPORE 760347", "POSTAL": "760347", "X": "29029.2778946897", "Y": "45469.51095406711", "LATITUDE": "1.427484580172333", "LONGITUDE": "103.8425675902319"}, {"SEARCHVAL": "ADAM GREEN", "BLK_NO": "7", "ROAD_NAME": "ADAM ROAD", "BUILDING": "ADAM GREEN", "ADDRESS": "7 ADAM ROAD ADAM GREEN SINGAPORE 289885", "POSTAL": "289885", "X": "25769.33798720781", "Y": "34160.28633596748", "LATITUDE": "1.325207934362363", "LONGITUDE": "103.813274876496"}, {"SEARCHVAL": "ADAM PLACE APARTMENT", "BLK_NO": "5", "ROAD_NAME": "ADAM ROAD", "BUILDING": "ADAM PLACE APARTMENT", "ADDRESS": "5 ADAM ROAD ADAM PLACE APARTMENT SINGAPORE 289880", "POSTAL": "289880", "X": "25741.14672012161", "Y": "34161.94111690484", "LATITUDE": "1.325222897537494", "LONGITUDE": "103.8130215626287"}, {"SEARCHVAL": "ADELPHI PARK ESTATE", "BLK_NO": "1", "ROAD_NAME": "MARIGOLD DRIVE", "BUILDING": "ADELPHI PARK ESTATE", "ADDRESS": "1 MARIGOLD DRIVE ADELPHI PARK ESTATE SINGAPORE 576383", "POSTAL": "576383", "X": "27564.75729527883", "Y": "37270.71466241963", "LATITUDE": "1.353337622971265", "LONGITUDE": "103.82940764354"}, {"SEARCHVAL": "ADMIRALTY CLOVER", "BLK_NO": "708", "ROAD_NAME": "WOODLANDS DRIVE 70", "BUILDING": "ADMIRALTY CLOVER", "ADDRESS": "708 WOODLANDS DRIVE 70 ADMIRALTY CLOVER SINGAPORE 730708", "POSTAL": "730708", "X": "23999.40983019955", "Y": "46859.8870097585", "LATITUDE": "1.440058370964679", "LONGITUDE": "103.7973693897037"}, {"SEARCHVAL": "ADMIRALTY CLOVER", "BLK_NO": "704", "ROAD_NAME": "WOODLANDS DRIVE 40", "BUILDING": "ADMIRALTY CLOVER", "ADDRESS": "704 WOODLANDS DRIVE 40 ADMIRALTY CLOVER SINGAPORE 730704", "POSTAL": "730704", "X": "23873.28196159843", "Y": "46917.63596178964", "LATITUDE": "1.440580613159757", "LONGITUDE": "103.7962360000013"}, {"SEARCHVAL": "ADMIRALTY FLORA", "BLK_NO": "691D", "ROAD_NAME": "WOODLANDS DRIVE 73", "BUILDING": "ADMIRALTY FLORA", "ADDRESS": "691D WOODLANDS DRIVE 73 ADMIRALTY FLORA SINGAPORE 734691", "POSTAL": "734691", "X": "24925.10356697347", "Y": "46799.92634589039", "LATITUDE": "1.439516225310158", "LONGITUDE": "103.805687652889"}, {"SEARCHVAL": "ADMIRALTY GROVE", "BLK_NO": "694D", "ROAD_NAME": "WOODLANDS DRIVE 62", "BUILDING": "ADMIRALTY GROVE", "ADDRESS": "694D WOODLANDS DRIVE 62 ADMIRALTY GROVE SINGAPORE 734694", "POSTAL": "734694", "X": "24858.72842119168", "Y": "46698.90125985444", "LATITUDE": "1.438602583811236", "LONGITUDE": "103.8050912191411"}, {"SEARCHVAL": "ADMIRALTY PLACE", "BLK_NO": "679", "ROAD_NAME": "WOODLANDS AVENUE 6", "BUILDING": "ADMIRALTY PLACE", "ADDRESS": "679 WOODLANDS AVENUE 6 ADMIRALTY PLACE SINGAPORE 730679", "POSTAL": "730679", "X": "24516.42228456028", "Y": "46844.96056546457", "LATITUDE": "1.439923450627371", "LONGITUDE": "103.8020152501499"}, {"SEARCHVAL": "ADMIRALTY PLACE", "BLK_NO": "680", "ROAD_NAME": "WOODLANDS AVENUE 6", "BUILDING": "ADMIRALTY PLACE", "ADDRESS": "680 WOODLANDS AVENUE 6 ADMIRALTY PLACE SINGAPORE 730680", "POSTAL": "730680", "X": "24528.26215121429", "Y": "46812.80158946477", "LATITUDE": "1.439632618019731", "LONGITUDE": "103.8021216467927"}, {"SEARCHVAL": "ADORA GREEN", "BLK_NO": "347B", "ROAD_NAME": "YISHUN AVENUE 11", "BUILDING": "ADORA GREEN", "ADDRESS": "347B YISHUN AVENUE 11 ADORA GREEN SINGAPORE 762347", "POSTAL": "762347", "X": "29008.08364713099", "Y": "45470.67336571403", "LATITUDE": "1.42749509336445", "LONGITUDE": "103.8423771404005"}, {"SEARCHVAL": "ADAM PARK CONDOMINIUM", "BLK_NO": "29B", "ROAD_NAME": "ADAM ROAD", "BUILDING": "ADAM PARK CONDOMINIUM", "ADDRESS": "29B ADAM ROAD ADAM PARK CONDOMINIUM SINGAPORE 289903", "POSTAL": "289903", "X": "25720.26220483985", "Y": "34463.36477221735", "LATITUDE": "1.327948864669984", "LONGITUDE": "103.8128338815554"}, {"SEARCHVAL": "ADELPHI PARK ESTATE", "BLK_NO": "66", "ROAD_NAME": "GARDENIA ROAD", "BUILDING": "ADELPHI PARK ESTATE", "ADDRESS": "66 GARDENIA ROAD ADELPHI PARK ESTATE SINGAPORE 578849", "POSTAL": "578849", "X": "27369.20481180493", "Y": "37518.75942692347", "LATITUDE": "1.355580848011577", "LONGITUDE": "103.8276504736028"}, {"SEARCHVAL": "ADELPHI PARK ESTATE", "BLK_NO": "9", "ROAD_NAME": "JASMINE ROAD", "BUILDING": "ADELPHI PARK ESTATE", "ADDRESS": "9 JASMINE ROAD ADELPHI PARK ESTATE SINGAPORE 576582", "POSTAL": "576582", "X": "27647.6610302683", "Y": "37488.39552396536", "LATITUDE": "1.355306252292607", "LONGITUDE": "103.8301525843015"}, {"SEARCHVAL": "ADMIRALTY CLOVER", "BLK_NO": "701", "ROAD_NAME": "WOODLANDS DRIVE 40", "BUILDING": "ADMIRALTY CLOVER", "ADDRESS": "701 WOODLANDS DRIVE 40 ADMIRALTY CLOVER SINGAPORE 730701", "POSTAL": "730701", "X": "23855.25898149796", "Y": "47052.14730518125", "LATITUDE": "1.441797082047692", "LONGITUDE": "103.796074026236"}, {"SEARCHVAL": "ADMIRALTY CLOVER", "BLK_NO": "706", "ROAD_NAME": "WOODLANDS DRIVE 40", "BUILDING": "ADMIRALTY CLOVER", "ADDRESS": "706 WOODLANDS DRIVE 40 ADMIRALTY CLOVER SINGAPORE 730706", "POSTAL": "730706", "X": "23923.45059978589", "Y": "46828.93675542064", "LATITUDE": "1.439778457204711", "LONGITUDE": "103.7966868267981"}, {"SEARCHVAL": "ADMIRALTY CLOVER", "BLK_NO": "710", "ROAD_NAME": "WOODLANDS DRIVE 70", "BUILDING": "ADMIRALTY CLOVER", "ADDRESS": "710 WOODLANDS DRIVE 70 ADMIRALTY CLOVER SINGAPORE 730710", "POSTAL": "730710", "X": "24005.07405960094", "Y": "46939.32381962612", "LATITUDE": "1.440776769333711", "LONGITUDE": "103.7974202770531"}, {"SEARCHVAL": "ADMIRALTY CLOVER", "BLK_NO": "709", "ROAD_NAME": "WOODLANDS DRIVE 70", "BUILDING": "ADMIRALTY CLOVER", "ADDRESS": "709 WOODLANDS DRIVE 70 ADMIRALTY CLOVER SINGAPORE 730709", "POSTAL": "730709", "X": "24062.0832015723", "Y": "46879.94908338599", "LATITUDE": "1.440239813920284", "LONGITUDE": "103.7979325679513"}, {"SEARCHVAL": "ADORA GREEN", "BLK_NO": "348C", "ROAD_NAME": "YISHUN AVENUE 11", "BUILDING": "ADORA GREEN", "ADDRESS": "348C YISHUN AVENUE 11 ADORA GREEN SINGAPORE 763348", "POSTAL": "763348", "X": "28991.85268300679", "Y": "45431.56700967811", "LATITUDE": "1.427141430197148", "LONGITUDE": "103.8422312888498"}, {"SEARCHVAL": "ADVANCE BUILDING", "BLK_NO": "19", "ROAD_NAME": "BURN ROAD", "BUILDING": "ADVANCE BUILDING", "ADDRESS": "19 BURN ROAD ADVANCE BUILDING SINGAPORE 369974", "POSTAL": "369974", "X": "33671.42244056799", "Y": "35319.39980153181", "LATITUDE": "1.335690096338609", "LONGITUDE": "103.8842795811759"}, {"SEARCHVAL": "ADAM PLACE APARTMENT", "BLK_NO": "5B", "ROAD_NAME": "ADAM ROAD", "BUILDING": "ADAM PLACE APARTMENT", "ADDRESS": "5B ADAM ROAD ADAM PLACE APARTMENT SINGAPORE 289882", "POSTAL": "289882", "X": "25702.00631260499", "Y": "34151.73720450141", "LATITUDE": "1.325130614042615", "LONGITUDE": "103.8126698657122"}, {"SEARCHVAL": "ADAM PLACE APARTMENT", "BLK_NO": "5D", "ROAD_NAME": "ADAM ROAD", "BUILDING": "ADAM PLACE APARTMENT", "ADDRESS": "5D ADAM ROAD ADAM PLACE APARTMENT SINGAPORE 289884", "POSTAL": "289884", "X": "25702.00631260499", "Y": "34151.73720450141", "LATITUDE": "1.325130614042615", "LONGITUDE": "103.8126698657122"}, {"SEARCHVAL": "ADAMSON LODGE", "BLK_NO": "7", "ROAD_NAME": "PERAK ROAD", "BUILDING": "ADAMSON LODGE", "ADDRESS": "7 PERAK ROAD ADAMSON LODGE SINGAPORE 208128", "POSTAL": "208128", "X": "30190.09217879549", "Y": "31873.05666535348", "LATITUDE": "1.304523041129477", "LONGITUDE": "103.8529975779532"}, {"SEARCHVAL": "ADAMSON LODGE", "BLK_NO": "7A", "ROAD_NAME": "PERAK ROAD", "BUILDING": "ADAMSON LODGE", "ADDRESS": "7A PERAK ROAD ADAMSON LODGE SINGAPORE 208128", "POSTAL": "208128", "X": "30190.09220906347", "Y": "31873.05669562146", "LATITUDE": "1.304523041403207", "LONGITUDE": "103.8529975782252"}, {"SEARCHVAL": "ADELPHI PARK ESTATE", "BLK_NO": "1", "ROAD_NAME": "CARNATION DRIVE", "BUILDING": "ADELPHI PARK ESTATE", "ADDRESS": "1 CARNATION DRIVE ADELPHI PARK ESTATE SINGAPORE 579538", "POSTAL": "579538", "X": "27596.6979180444", "Y": "37443.71740721911", "LATITUDE": "1.354902198663055", "LONGITUDE": "103.8296946482256"}, {"SEARCHVAL": "ADELPHI PARK ESTATE", "BLK_NO": "1", "ROAD_NAME": "DAFFODIL DRIVE", "BUILDING": "ADELPHI PARK ESTATE", "ADDRESS": "1 DAFFODIL DRIVE ADELPHI PARK ESTATE SINGAPORE 579050", "POSTAL": "579050", "X": "27479.07032838278", "Y": "37332.94730168022", "LATITUDE": "1.353900431432847", "LONGITUDE": "103.8286376900031"}, {"SEARCHVAL": "ADMIRALTY FLORA", "BLK_NO": "691", "ROAD_NAME": "WOODLANDS DRIVE 73", "BUILDING": "ADMIRALTY FLORA", "ADDRESS": "691 WOODLANDS DRIVE 73 ADMIRALTY FLORA SINGAPORE 730691", "POSTAL": "730691", "X": "24981.9051008448", "Y": "46923.07290890068", "LATITUDE": "1.44062992421831", "LONGITUDE": "103.8061980565287"}, {"SEARCHVAL": "ADELPHI PARK ESTATE", "BLK_NO": "1", "ROAD_NAME": "GARDENIA ROAD", "BUILDING": "ADELPHI PARK ESTATE", "ADDRESS": "1 GARDENIA ROAD ADELPHI PARK ESTATE SINGAPORE 578809", "POSTAL": "578809", "X": "27611.706570182", "Y": "37476.95431692339", "LATITUDE": "1.355202781641087", "LONGITUDE": "103.8298295102634"}, {"SEARCHVAL": "ADELPHI PARK ESTATE", "BLK_NO": "10", "ROAD_NAME": "DAFFODIL DRIVE", "BUILDING": "ADELPHI PARK ESTATE", "ADDRESS": "10 DAFFODIL DRIVE ADELPHI PARK ESTATE SINGAPORE 579058", "POSTAL": "579058", "X": "27494.20093022659", "Y": "37400.1122299619", "LATITUDE": "1.354507847396023", "LONGITUDE": "103.8287736470788"}, {"SEARCHVAL": "ADELPHI PARK ESTATE", "BLK_NO": "10", "ROAD_NAME": "GARDENIA ROAD", "BUILDING": "ADELPHI PARK ESTATE", "ADDRESS": "10 GARDENIA ROAD ADELPHI PARK ESTATE SINGAPORE 578818", "POSTAL": "578818", "X": "27594.69729512464", "Y": "37548.7154687997", "LATITUDE": "1.355851763719449", "LONGITUDE": "103.8296766699074"}, {"SEARCHVAL": "ADELPHI PARK ESTATE", "BLK_NO": "10", "ROAD_NAME": "GLADIOLA DRIVE", "BUILDING": "ADELPHI PARK ESTATE", "ADDRESS": "10 GLADIOLA DRIVE ADELPHI PARK ESTATE SINGAPORE 578792", "POSTAL": "578792", "X": "27521.91462906636", "Y": "37444.0531396959", "LATITUDE": "1.354905233798686", "LONGITUDE": "103.8290226718869"}, {"SEARCHVAL": "ADELPHI PARK ESTATE", "BLK_NO": "10", "ROAD_NAME": "ORCHID DRIVE", "BUILDING": "ADELPHI PARK ESTATE", "ADDRESS": "10 ORCHID DRIVE ADELPHI PARK ESTATE SINGAPORE 576166", "POSTAL": "576166", "X": "27548.71589953639", "Y": "37483.79006863385", "LATITUDE": "1.355264600855223", "LONGITUDE": "103.8292634980778"}, {"SEARCHVAL": "ADELPHI PARK ESTATE", "BLK_NO": "102", "ROAD_NAME": "GARDENIA ROAD", "BUILDING": "ADELPHI PARK ESTATE", "ADDRESS": "102 GARDENIA ROAD ADELPHI PARK ESTATE SINGAPORE 578873", "POSTAL": "578873", "X": "27285.53611406218", "Y": "37414.23233516887", "LATITUDE": "1.354635540320405", "LONGITUDE": "103.826898658399"}, {"SEARCHVAL": "ADELPHI PARK ESTATE", "BLK_NO": "104", "ROAD_NAME": "GARDENIA ROAD", "BUILDING": "ADELPHI PARK ESTATE", "ADDRESS": "104 GARDENIA ROAD ADELPHI PARK ESTATE SINGAPORE 578874", "POSTAL": "578874", "X": "27280.91074239835", "Y": "37408.90762174129", "LATITUDE": "1.354587385396556", "LONGITUDE": "103.8268570965685"}, {"SEARCHVAL": "ADELPHI PARK ESTATE", "BLK_NO": "108", "ROAD_NAME": "GARDENIA ROAD", "BUILDING": "ADELPHI PARK ESTATE", "ADDRESS": "108 GARDENIA ROAD ADELPHI PARK ESTATE SINGAPORE 578876", "POSTAL": "578876", "X": "27271.87014968228", "Y": "37398.12431959435", "LATITUDE": "1.354489864831339", "LONGITUDE": "103.826775861255"}, {"SEARCHVAL": "ADELPHI PARK ESTATE", "BLK_NO": "11", "ROAD_NAME": "CARNATION DRIVE", "BUILDING": "ADELPHI PARK ESTATE", "ADDRESS": "11 CARNATION DRIVE ADELPHI PARK ESTATE SINGAPORE 579543", "POSTAL": "579543", "X": "27538.49624778237", "Y": "37514.11949635856", "LATITUDE": "1.355538889243311", "LONGITUDE": "103.8291716673995"}, {"SEARCHVAL": "ADELPHI PARK ESTATE", "BLK_NO": "11", "ROAD_NAME": "DAFFODIL DRIVE", "BUILDING": "ADELPHI PARK ESTATE", "ADDRESS": "11 DAFFODIL DRIVE ADELPHI PARK ESTATE SINGAPORE 579059", "POSTAL": "579059", "X": "27454.92570911068", "Y": "37392.6608879976", "LATITUDE": "1.354440459417971", "LONGITUDE": "103.8284207339481"}, {"SEARCHVAL": "ADELPHI PARK ESTATE", "BLK_NO": "11", "ROAD_NAME": "GLADIOLA DRIVE", "BUILDING": "ADELPHI PARK ESTATE", "ADDRESS": "11 GLADIOLA DRIVE ADELPHI PARK ESTATE SINGAPORE 578793", "POSTAL": "578793", "X": "27485.4764866", "Y": "37437.31675777584", "LATITUDE": "1.354844311750468", "LONGITUDE": "103.8286952516697"}, {"SEARCHVAL": "ADELPHI PARK ESTATE", "BLK_NO": "11", "ROAD_NAME": "JASMINE ROAD", "BUILDING": "ADELPHI PARK ESTATE", "ADDRESS": "11 JASMINE ROAD ADELPHI PARK ESTATE SINGAPORE 576583", "POSTAL": "576583", "X": "27648.76759748533", "Y": "37481.36466483213", "LATITUDE": "1.355242667719026", "LONGITUDE": "103.8301625276097"}, {"SEARCHVAL": "ADELPHI PARK ESTATE", "BLK_NO": "11", "ROAD_NAME": "MARIGOLD DRIVE", "BUILDING": "ADELPHI PARK ESTATE", "ADDRESS": "11 MARIGOLD DRIVE ADELPHI PARK ESTATE SINGAPORE 576412", "POSTAL": "576412", "X": "27477.77703797445", "Y": "37301.0127022434", "LATITUDE": "1.353611626259916", "LONGITUDE": "103.8286260695121"}, {"SEARCHVAL": "ADELPHI PARK ESTATE", "BLK_NO": "11", "ROAD_NAME": "ORCHID DRIVE", "BUILDING": "ADELPHI PARK ESTATE", "ADDRESS": "11 ORCHID DRIVE ADELPHI PARK ESTATE SINGAPORE 576167", "POSTAL": "576167", "X": "27521.28469178919", "Y": "37467.29280678928", "LATITUDE": "1.355115405063558", "LONGITUDE": "103.8290170111201"}, {"SEARCHVAL": "ADELPHI PARK ESTATE", "BLK_NO": "12", "ROAD_NAME": "DAFFODIL DRIVE", "BUILDING": "ADELPHI PARK ESTATE", "ADDRESS": "12 DAFFODIL DRIVE ADELPHI PARK ESTATE SINGAPORE 579060", "POSTAL": "579060", "X": "27484.54789512791", "Y": "37410.85379255936", "LATITUDE": "1.354604990098296", "LONGITUDE": "103.8286869081295"}, {"SEARCHVAL": "ADELPHI PARK ESTATE", "BLK_NO": "12", "ROAD_NAME": "GARDENIA ROAD", "BUILDING": "ADELPHI PARK ESTATE", "ADDRESS": "12 GARDENIA ROAD ADELPHI PARK ESTATE SINGAPORE 578820", "POSTAL": "578820", "X": "27589.02383398823", "Y": "37554.25762742199", "LATITUDE": "1.355901884950471", "LONGITUDE": "103.8296256900849"}, {"SEARCHVAL": "ADELPHI PARK ESTATE", "BLK_NO": "12", "ROAD_NAME": "MARIGOLD DRIVE", "BUILDING": "ADELPHI PARK ESTATE", "ADDRESS": "12 MARIGOLD DRIVE ADELPHI PARK ESTATE SINGAPORE 576413", "POSTAL": "576413", "X": "27576.20128697436", "Y": "37337.67092321999", "LATITUDE": "1.353943151727572", "LONGITUDE": "103.8295104742103"}, {"SEARCHVAL": "ADELPHI PARK ESTATE", "BLK_NO": "12", "ROAD_NAME": "ORCHID DRIVE", "BUILDING": "ADELPHI PARK ESTATE", "ADDRESS": "12 ORCHID DRIVE ADELPHI PARK ESTATE SINGAPORE 576168", "POSTAL": "576168", "X": "27534.32955714315", "Y": "37498.90556675568", "LATITUDE": "1.355401299816166", "LONGITUDE": "103.8291342272101"}, {"SEARCHVAL": "ADELPHI PARK ESTATE", "BLK_NO": "13", "ROAD_NAME": "GARDENIA ROAD", "BUILDING": "ADELPHI PARK ESTATE", "ADDRESS": "13 GARDENIA ROAD ADELPHI PARK ESTATE SINGAPORE 578970", "POSTAL": "578970", "X": "27537.01680927351", "Y": "37558.77049299143", "LATITUDE": "1.355942696934059", "LONGITUDE": "103.8291583729902"}, {"SEARCHVAL": "ADELPHI PARK ESTATE", "BLK_NO": "14", "ROAD_NAME": "GARDENIA ROAD", "BUILDING": "ADELPHI PARK ESTATE", "ADDRESS": "14 GARDENIA ROAD ADELPHI PARK ESTATE SINGAPORE 578821", "POSTAL": "578821", "X": "27583.35155330412", "Y": "37559.79872666486", "LATITUDE": "1.355951996599752", "LONGITUDE": "103.8295747208674"}, {"SEARCHVAL": "ADELPHI PARK ESTATE", "BLK_NO": "14", "ROAD_NAME": "GLADIOLA DRIVE", "BUILDING": "ADELPHI PARK ESTATE", "ADDRESS": "14 GLADIOLA DRIVE ADELPHI PARK ESTATE SINGAPORE 578795", "POSTAL": "578795", "X": "27492.02036414389", "Y": "37472.36293620616", "LATITUDE": "1.355161257022919", "LONGITUDE": "103.8287540520552"}, {"SEARCHVAL": "ADELPHI PARK ESTATE", "BLK_NO": "14", "ROAD_NAME": "MARIGOLD DRIVE", "BUILDING": "ADELPHI PARK ESTATE", "ADDRESS": "14 MARIGOLD DRIVE ADELPHI PARK ESTATE SINGAPORE 576415", "POSTAL": "576415", "X": "27560.00204369705", "Y": "37315.24455684796", "LATITUDE": "1.353740335417306", "LONGITUDE": "103.8293649138945"}, {"SEARCHVAL": "ADELPHI PARK ESTATE", "BLK_NO": "14A", "ROAD_NAME": "MARIGOLD DRIVE", "BUILDING": "ADELPHI PARK ESTATE", "ADDRESS": "14A MARIGOLD DRIVE ADELPHI PARK ESTATE SINGAPORE 576416", "POSTAL": "576416", "X": "27554.45038092788", "Y": "37310.41581460088", "LATITUDE": "1.353696665908478", "LONGITUDE": "103.829315028701"}, {"SEARCHVAL": "ADELPHI PARK ESTATE", "BLK_NO": "15", "ROAD_NAME": "CARNATION DRIVE", "BUILDING": "ADELPHI PARK ESTATE", "ADDRESS": "15 CARNATION DRIVE ADELPHI PARK ESTATE SINGAPORE 579544", "POSTAL": "579544", "X": "27516.99275223352", "Y": "37530.96332661808", "LATITUDE": "1.35569121850447", "LONGITUDE": "103.8289784442288"}, {"SEARCHVAL": "ADELPHI PARK ESTATE", "BLK_NO": "15", "ROAD_NAME": "GARDENIA ROAD", "BUILDING": "ADELPHI PARK ESTATE", "ADDRESS": "15 GARDENIA ROAD ADELPHI PARK ESTATE SINGAPORE 578822", "POSTAL": "578822", "X": "27532.20365503896", "Y": "37563.38421148062", "LATITUDE": "1.355984421685653", "LONGITUDE": "103.8291151235884"}, {"SEARCHVAL": "ADELPHI PARK ESTATE", "BLK_NO": "15", "ROAD_NAME": "GLADIOLA DRIVE", "BUILDING": "ADELPHI PARK ESTATE", "ADDRESS": "15 GLADIOLA DRIVE ADELPHI PARK ESTATE SINGAPORE 578796", "POSTAL": "578796", "X": "27470.55491545144", "Y": "37448.82128543779", "LATITUDE": "1.35494835434062", "LONGITUDE": "103.8285611714791"}, {"SEARCHVAL": "ADELPHI PARK ESTATE", "BLK_NO": "15", "ROAD_NAME": "MARIGOLD DRIVE", "BUILDING": "ADELPHI PARK ESTATE", "ADDRESS": "15 MARIGOLD DRIVE ADELPHI PARK ESTATE SINGAPORE 576417", "POSTAL": "576417", "X": "27460.35608806927", "Y": "37306.82917960361", "LATITUDE": "1.353664228099986", "LONGITUDE": "103.8284695309614"}, {"SEARCHVAL": "ADELPHI PARK ESTATE", "BLK_NO": "16", "ROAD_NAME": "DAFFODIL DRIVE", "BUILDING": "ADELPHI PARK ESTATE", "ADDRESS": "16 DAFFODIL DRIVE ADELPHI PARK ESTATE SINGAPORE 579063", "POSTAL": "579063", "X": "27457.8437546175", "Y": "37437.63251338154", "LATITUDE": "1.354847166840634", "LONGITUDE": "103.8284469536591"}, {"SEARCHVAL": "ADELPHI PARK ESTATE", "BLK_NO": "16", "ROAD_NAME": "MARIGOLD DRIVE", "BUILDING": "ADELPHI PARK ESTATE", "ADDRESS": "16 MARIGOLD DRIVE ADELPHI PARK ESTATE SINGAPORE 576418", "POSTAL": "576418", "X": "27463.66543806903", "Y": "37338.64101209678", "LATITUDE": "1.353951923049359", "LONGITUDE": "103.8284992670317"}, {"SEARCHVAL": "ADELPHI PARK ESTATE", "BLK_NO": "16", "ROAD_NAME": "ORCHID DRIVE", "BUILDING": "ADELPHI PARK ESTATE", "ADDRESS": "16 ORCHID DRIVE ADELPHI PARK ESTATE SINGAPORE 576171", "POSTAL": "576171", "X": "27500.30679977778", "Y": "37523.27077909186", "LATITUDE": "1.355621649567833", "LONGITUDE": "103.8288285102086"}, {"SEARCHVAL": "ADELPHI PARK ESTATE", "BLK_NO": "17", "ROAD_NAME": "CARNATION DRIVE", "BUILDING": "ADELPHI PARK ESTATE", "ADDRESS": "17 CARNATION DRIVE ADELPHI PARK ESTATE SINGAPORE 579545", "POSTAL": "579545", "X": "27495.70415936969", "Y": "37542.58514271677", "LATITUDE": "1.355796321716983", "LONGITUDE": "103.8287871521627"}, {"SEARCHVAL": "ADELPHI PARK ESTATE", "BLK_NO": "17", "ROAD_NAME": "DAFFODIL DRIVE", "BUILDING": "ADELPHI PARK ESTATE", "ADDRESS": "17 DAFFODIL DRIVE ADELPHI PARK ESTATE SINGAPORE 579064", "POSTAL": "579064", "X": "27400.67213410884", "Y": "37438.35376916453", "LATITUDE": "1.354853688523739", "LONGITUDE": "103.8279332295825"}, {"SEARCHVAL": "ADELPHI PARK ESTATE", "BLK_NO": "17", "ROAD_NAME": "GLADIOLA DRIVE", "BUILDING": "ADELPHI PARK ESTATE", "ADDRESS": "17 GLADIOLA DRIVE ADELPHI PARK ESTATE SINGAPORE 578798", "POSTAL": "578798", "X": "27451.8654646175", "Y": "37460.50064097531", "LATITUDE": "1.355053977934993", "LONGITUDE": "103.82839323443"}, {"SEARCHVAL": "ADELPHI PARK ESTATE", "BLK_NO": "17", "ROAD_NAME": "MARIGOLD DRIVE", "BUILDING": "ADELPHI PARK ESTATE", "ADDRESS": "17 MARIGOLD DRIVE ADELPHI PARK ESTATE SINGAPORE 576419", "POSTAL": "576419", "X": "27442.58378741052", "Y": "37313.28673285618", "LATITUDE": "1.353722627585441", "LONGITUDE": "103.8283098352793"}, {"SEARCHVAL": "ADELPHI PARK ESTATE", "BLK_NO": "18", "ROAD_NAME": "DAFFODIL DRIVE", "BUILDING": "ADELPHI PARK ESTATE", "ADDRESS": "18 DAFFODIL DRIVE ADELPHI PARK ESTATE SINGAPORE 579065", "POSTAL": "579065", "X": "27443.66995400563", "Y": "37448.85809130594", "LATITUDE": "1.35494868670881", "LONGITUDE": "103.828319592666"}, {"SEARCHVAL": "ADELPHI PARK ESTATE", "BLK_NO": "18", "ROAD_NAME": "GARDENIA ROAD", "BUILDING": "ADELPHI PARK ESTATE", "ADDRESS": "18 GARDENIA ROAD ADELPHI PARK ESTATE SINGAPORE 578825", "POSTAL": "578825", "X": "27572.0072946148", "Y": "37570.88068300858", "LATITUDE": "1.356052217705154", "LONGITUDE": "103.8294727851459"}, {"SEARCHVAL": "ADELPHI PARK ESTATE", "BLK_NO": "18", "ROAD_NAME": "GLADIOLA DRIVE", "BUILDING": "ADELPHI PARK ESTATE", "ADDRESS": "18 GLADIOLA DRIVE ADELPHI PARK ESTATE SINGAPORE 578799", "POSTAL": "578799", "X": "27424.64362051338", "Y": "37488.37276244164", "LATITUDE": "1.355306042962973", "LONGITUDE": "103.828148627962"}, {"SEARCHVAL": "ADELPHI PARK ESTATE", "BLK_NO": "2", "ROAD_NAME": "JASMINE ROAD", "BUILDING": "ADELPHI PARK ESTATE", "ADDRESS": "2 JASMINE ROAD ADELPHI PARK ESTATE SINGAPORE 576564", "POSTAL": "576564", "X": "27631.42997534014", "Y": "37541.03015532158", "LATITUDE": "1.355782260960009", "LONGITUDE": "103.8300067370765"}, {"SEARCHVAL": "ADELPHI PARK ESTATE", "BLK_NO": "2", "ROAD_NAME": "ORCHID DRIVE", "BUILDING": "ADELPHI PARK ESTATE", "ADDRESS": "2 ORCHID DRIVE ADELPHI PARK ESTATE SINGAPORE 576158", "POSTAL": "576158", "X": "27585.8253556136", "Y": "37426.82687346265", "LATITUDE": "1.354749446539436", "LONGITUDE": "103.8295969514375"}, {"SEARCHVAL": "ADELPHI PARK ESTATE", "BLK_NO": "20", "ROAD_NAME": "GLADIOLA DRIVE", "BUILDING": "ADELPHI PARK ESTATE", "ADDRESS": "20 GLADIOLA DRIVE ADELPHI PARK ESTATE SINGAPORE 578800", "POSTAL": "578800", "X": "27405.57588041853", "Y": "37478.05991556495", "LATITUDE": "1.355212776872734", "LONGITUDE": "103.8279772921325"}, {"SEARCHVAL": "ADELPHI PARK ESTATE", "BLK_NO": "20", "ROAD_NAME": "ORCHID DRIVE", "BUILDING": "ADELPHI PARK ESTATE", "ADDRESS": "20 ORCHID DRIVE ADELPHI PARK ESTATE SINGAPORE 576175", "POSTAL": "576175", "X": "27459.33221298456", "Y": "37537.83885045908", "LATITUDE": "1.355753397300228", "LONGITUDE": "103.8284603266108"}, {"SEARCHVAL": "ADELPHI PARK ESTATE", "BLK_NO": "21", "ROAD_NAME": "JASMINE ROAD", "BUILDING": "ADELPHI PARK ESTATE", "ADDRESS": "21 JASMINE ROAD ADELPHI PARK ESTATE SINGAPORE 576587", "POSTAL": "576587", "X": "27641.6564071225", "Y": "37454.54468874633", "LATITUDE": "1.355000117319103", "LONGITUDE": "103.8300986292669"}, {"SEARCHVAL": "ADELPHI PARK ESTATE", "BLK_NO": "21", "ROAD_NAME": "MARIGOLD DRIVE", "BUILDING": "ADELPHI PARK ESTATE", "ADDRESS": "21 MARIGOLD DRIVE ADELPHI PARK ESTATE SINGAPORE 576423", "POSTAL": "576423", "X": "27408.46141811088", "Y": "37325.12662977912", "LATITUDE": "1.353829702740005", "LONGITUDE": "103.8280032235846"}, {"SEARCHVAL": "ADELPHI PARK ESTATE", "BLK_NO": "21", "ROAD_NAME": "ORCHID DRIVE", "BUILDING": "ADELPHI PARK ESTATE", "ADDRESS": "21 ORCHID DRIVE ADELPHI PARK ESTATE SINGAPORE 576176", "POSTAL": "576176", "X": "27445.9229513742", "Y": "37506.8865984343", "LATITUDE": "1.355473475907685", "LONGITUDE": "103.8283398362336"}, {"SEARCHVAL": "ADELPHI PARK ESTATE", "BLK_NO": "22", "ROAD_NAME": "ORCHID DRIVE", "BUILDING": "ADELPHI PARK ESTATE", "ADDRESS": "22 ORCHID DRIVE ADELPHI PARK ESTATE SINGAPORE 576177", "POSTAL": "576177", "X": "27439.38869904913", "Y": "37536.8165493086", "LATITUDE": "1.355744151603051", "LONGITUDE": "103.8282811211656"}, {"SEARCHVAL": "ADELPHI PARK ESTATE", "BLK_NO": "23", "ROAD_NAME": "MARIGOLD DRIVE", "BUILDING": "ADELPHI PARK ESTATE", "ADDRESS": "23 MARIGOLD DRIVE ADELPHI PARK ESTATE SINGAPORE 576425", "POSTAL": "576425", "X": "27389.46777404007", "Y": "37331.48069679737", "LATITUDE": "1.353887166276694", "LONGITUDE": "103.8278325533249"}, {"SEARCHVAL": "ADELPHI PARK ESTATE", "BLK_NO": "24", "ROAD_NAME": "GARDENIA ROAD", "BUILDING": "ADELPHI PARK ESTATE", "ADDRESS": "24 GARDENIA ROAD ADELPHI PARK ESTATE SINGAPORE 578828", "POSTAL": "578828", "X": "27554.98957478907", "Y": "37587.50488877669", "LATITUDE": "1.35620256085169", "LONGITUDE": "103.829319869581"}, {"SEARCHVAL": "ADELPHI PARK ESTATE", "BLK_NO": "24", "ROAD_NAME": "MARIGOLD DRIVE", "BUILDING": "ADELPHI PARK ESTATE", "ADDRESS": "24 MARIGOLD DRIVE ADELPHI PARK ESTATE SINGAPORE 576430", "POSTAL": "576430", "X": "27441.63152637426", "Y": "37370.03799160756", "LATITUDE": "1.35423586575005", "LONGITUDE": "103.8283012775424"}, {"SEARCHVAL": "ADELPHI PARK ESTATE", "BLK_NO": "28", "ROAD_NAME": "GARDENIA ROAD", "BUILDING": "ADELPHI PARK ESTATE", "ADDRESS": "28 GARDENIA ROAD ADELPHI PARK ESTATE SINGAPORE 578830", "POSTAL": "578830", "X": "27543.64604253136", "Y": "37598.58642136678", "LATITUDE": "1.356302778113756", "LONGITUDE": "103.829217940366"}, {"SEARCHVAL": "ADELPHI PARK ESTATE", "BLK_NO": "29", "ROAD_NAME": "MARIGOLD DRIVE", "BUILDING": "ADELPHI PARK ESTATE", "ADDRESS": "29 MARIGOLD DRIVE ADELPHI PARK ESTATE SINGAPORE 576428", "POSTAL": "576428", "X": "27418.17559453659", "Y": "37398.3945521526", "LATITUDE": "1.354492311939139", "LONGITUDE": "103.8280905102952"}, {"SEARCHVAL": "ADELPHI PARK ESTATE", "BLK_NO": "2A", "ROAD_NAME": "JASMINE ROAD", "BUILDING": "ADELPHI PARK ESTATE", "ADDRESS": "2A JASMINE ROAD ADELPHI PARK ESTATE SINGAPORE 576565", "POSTAL": "576565", "X": "27625.74301468395", "Y": "37546.51810398512", "LATITUDE": "1.355831891942342", "LONGITUDE": "103.8299556359609"}, {"SEARCHVAL": "ADELPHI PARK ESTATE", "BLK_NO": "2B", "ROAD_NAME": "JASMINE ROAD", "BUILDING": "ADELPHI PARK ESTATE", "ADDRESS": "2B JASMINE ROAD ADELPHI PARK ESTATE SINGAPORE 576566", "POSTAL": "576566", "X": "27620.02893391345", "Y": "37552.02618085966", "LATITUDE": "1.355881704955589", "LONGITUDE": "103.8299042911511"}, {"SEARCHVAL": "ADELPHI PARK ESTATE", "BLK_NO": "2C", "ROAD_NAME": "JASMINE ROAD", "BUILDING": "ADELPHI PARK ESTATE", "ADDRESS": "2C JASMINE ROAD ADELPHI PARK ESTATE SINGAPORE 576567", "POSTAL": "576567", "X": "27613.54244446661", "Y": "37556.7185961064", "LATITUDE": "1.355924141404356", "LONGITUDE": "103.829846005754"}, {"SEARCHVAL": "ADELPHI PARK ESTATE", "BLK_NO": "2D", "ROAD_NAME": "JASMINE ROAD", "BUILDING": "ADELPHI PARK ESTATE", "ADDRESS": "2D JASMINE ROAD ADELPHI PARK ESTATE SINGAPORE 576568", "POSTAL": "576568", "X": "27608.6455992572", "Y": "37563.06143370271", "LATITUDE": "1.355981503704714", "LONGITUDE": "103.8298020043236"}, {"SEARCHVAL": "ADELPHI PARK ESTATE", "BLK_NO": "2E", "ROAD_NAME": "JASMINE ROAD", "BUILDING": "ADELPHI PARK ESTATE", "ADDRESS": "2E JASMINE ROAD ADELPHI PARK ESTATE SINGAPORE 576569", "POSTAL": "576569", "X": "27602.94589577895", "Y": "37568.57268871367", "LATITUDE": "1.356031345456731", "LONGITUDE": "103.8297507886968"}, {"SEARCHVAL": "ADELPHI PARK ESTATE", "BLK_NO": "2F", "ROAD_NAME": "JASMINE ROAD", "BUILDING": "ADELPHI PARK ESTATE", "ADDRESS": "2F JASMINE ROAD ADELPHI PARK ESTATE SINGAPORE 576570", "POSTAL": "576570", "X": "27597.24740302097", "Y": "37574.08267246932", "LATITUDE": "1.356081175710867", "LONGITUDE": "103.8296995839469"}, {"SEARCHVAL": "ADELPHI PARK ESTATE", "BLK_NO": "2L", "ROAD_NAME": "JASMINE ROAD", "BUILDING": "ADELPHI PARK ESTATE", "ADDRESS": "2L JASMINE ROAD ADELPHI PARK ESTATE SINGAPORE 576575", "POSTAL": "576575", "X": "27568.22561272886", "Y": "37601.07717374712", "LATITUDE": "1.356325303959032", "LONGITUDE": "103.82943880383"}, {"SEARCHVAL": "ADELPHI PARK ESTATE", "BLK_NO": "2M", "ROAD_NAME": "JASMINE ROAD", "BUILDING": "ADELPHI PARK ESTATE", "ADDRESS": "2M JASMINE ROAD ADELPHI PARK ESTATE SINGAPORE 576576", "POSTAL": "576576", "X": "27562.06050873362", "Y": "37606.11773134395", "LATITUDE": "1.356370888876486", "LONGITUDE": "103.8293834062675"}, {"SEARCHVAL": "ADELPHI PARK ESTATE", "BLK_NO": "2N", "ROAD_NAME": "JASMINE ROAD", "BUILDING": "ADELPHI PARK ESTATE", "ADDRESS": "2N JASMINE ROAD ADELPHI PARK ESTATE SINGAPORE 576577", "POSTAL": "576577", "X": "27557.35980005842", "Y": "37612.65068214573", "LATITUDE": "1.356429970487165", "LONGITUDE": "103.8293411672303"}, {"SEARCHVAL": "ADELPHI PARK ESTATE", "BLK_NO": "2P", "ROAD_NAME": "JASMINE ROAD", "BUILDING": "ADELPHI PARK ESTATE", "ADDRESS": "2P JASMINE ROAD ADELPHI PARK ESTATE SINGAPORE 576578", "POSTAL": "576578", "X": "27551.61545130424", "Y": "37618.21024485864", "LATITUDE": "1.356480249106108", "LONGITUDE": "103.8292895504169"}, {"SEARCHVAL": "ADELPHI PARK ESTATE", "BLK_NO": "3", "ROAD_NAME": "GARDENIA ROAD", "BUILDING": "ADELPHI PARK ESTATE", "ADDRESS": "3 GARDENIA ROAD ADELPHI PARK ESTATE SINGAPORE 578811", "POSTAL": "578811", "X": "27600.51507400721", "Y": "37498.16963099875", "LATITUDE": "1.355394645239373", "LONGITUDE": "103.8297289471187"}, {"SEARCHVAL": "ADELPHI PARK ESTATE", "BLK_NO": "31", "ROAD_NAME": "JASMINE ROAD", "BUILDING": "ADELPHI PARK ESTATE", "ADDRESS": "31 JASMINE ROAD ADELPHI PARK ESTATE SINGAPORE 576592", "POSTAL": "576592", "X": "27567.36802994646", "Y": "37353.91998759843", "LATITUDE": "1.354090102354583", "LONGITUDE": "103.8294311014655"}, {"SEARCHVAL": "ADELPHI PARK ESTATE", "BLK_NO": "31", "ROAD_NAME": "MARIGOLD DRIVE", "BUILDING": "ADELPHI PARK ESTATE", "ADDRESS": "31 MARIGOLD DRIVE ADELPHI PARK ESTATE SINGAPORE 576429", "POSTAL": "576429", "X": "27430.14755067229", "Y": "37414.77019724064", "LATITUDE": "1.354640407675136", "LONGITUDE": "103.8281980857525"}, {"SEARCHVAL": "ADELPHI PARK ESTATE", "BLK_NO": "32", "ROAD_NAME": "GARDENIA ROAD", "BUILDING": "ADELPHI PARK ESTATE", "ADDRESS": "32 GARDENIA ROAD ADELPHI PARK ESTATE SINGAPORE 578832", "POSTAL": "578832", "X": "27508.78876658715", "Y": "37604.29944275878", "LATITUDE": "1.356354444088268", "LONGITUDE": "103.8289047248699"}, {"SEARCHVAL": "ADELPHI PARK ESTATE", "BLK_NO": "33", "ROAD_NAME": "JASMINE ROAD", "BUILDING": "ADELPHI PARK ESTATE", "ADDRESS": "33 JASMINE ROAD ADELPHI PARK ESTATE SINGAPORE 576593", "POSTAL": "576593", "X": "27552.13188364264", "Y": "37334.70387384854", "LATITUDE": "1.353916318436307", "LONGITUDE": "103.8292941951466"}, {"SEARCHVAL": "ADELPHI PARK ESTATE", "BLK_NO": "34", "ROAD_NAME": "GARDENIA ROAD", "BUILDING": "ADELPHI PARK ESTATE", "ADDRESS": "34 GARDENIA ROAD ADELPHI PARK ESTATE SINGAPORE 578833", "POSTAL": "578833", "X": "27493.97195293009", "Y": "37597.39807005972", "LATITUDE": "1.356292030282574", "LONGITUDE": "103.8287715862311"}, {"SEARCHVAL": "ADELPHI PARK ESTATE", "BLK_NO": "36", "ROAD_NAME": "GARDENIA ROAD", "BUILDING": "ADELPHI PARK ESTATE", "ADDRESS": "36 GARDENIA ROAD ADELPHI PARK ESTATE SINGAPORE 578834", "POSTAL": "578834", "X": "27484.89068004303", "Y": "37599.9199681934", "LATITUDE": "1.356314837274997", "LONGITUDE": "103.828689985017"}, {"SEARCHVAL": "ADELPHI PARK ESTATE", "BLK_NO": "37", "ROAD_NAME": "JASMINE ROAD", "BUILDING": "ADELPHI PARK ESTATE", "ADDRESS": "37 JASMINE ROAD ADELPHI PARK ESTATE SINGAPORE 576595", "POSTAL": "576595", "X": "27533.40938017052", "Y": "37311.45582252182", "LATITUDE": "1.353706071047246", "LONGITUDE": "103.8291259617456"}, {"SEARCHVAL": "ADELPHI PARK ESTATE", "BLK_NO": "4", "ROAD_NAME": "DAFFODIL DRIVE", "BUILDING": "ADELPHI PARK ESTATE", "ADDRESS": "4 DAFFODIL DRIVE ADELPHI PARK ESTATE SINGAPORE 579053", "POSTAL": "579053", "X": "27509.52379430365", "Y": "37343.71604492702", "LATITUDE": "1.35399782063131", "LONGITUDE": "103.8289113338483"}, {"SEARCHVAL": "ADELPHI PARK ESTATE", "BLK_NO": "4", "ROAD_NAME": "GARDENIA ROAD", "BUILDING": "ADELPHI PARK ESTATE", "ADDRESS": "4 GARDENIA ROAD ADELPHI PARK ESTATE SINGAPORE 578812", "POSTAL": "578812", "X": "27611.75548324455", "Y": "37532.13260909729", "LATITUDE": "1.355701794469298", "LONGITUDE": "103.8298299490618"}, {"SEARCHVAL": "ADELPHI PARK ESTATE", "BLK_NO": "4", "ROAD_NAME": "GLADIOLA DRIVE", "BUILDING": "ADELPHI PARK ESTATE", "ADDRESS": "4 GLADIOLA DRIVE ADELPHI PARK ESTATE SINGAPORE 578786", "POSTAL": "578786", "X": "27547.17819515988", "Y": "37398.36564622819", "LATITUDE": "1.354492052768753", "LONGITUDE": "103.8292496820986"}, {"SEARCHVAL": "ADELPHI PARK ESTATE", "BLK_NO": "4", "ROAD_NAME": "ORCHID DRIVE", "BUILDING": "ADELPHI PARK ESTATE", "ADDRESS": "4 ORCHID DRIVE ADELPHI PARK ESTATE SINGAPORE 576160", "POSTAL": "576160", "X": "27578.09748535044", "Y": "37442.71620285511", "LATITUDE": "1.354893143868837", "LONGITUDE": "103.8295275112933"}, {"SEARCHVAL": "ADELPHI PARK ESTATE", "BLK_NO": "40", "ROAD_NAME": "GARDENIA ROAD", "BUILDING": "ADELPHI PARK ESTATE", "ADDRESS": "40 GARDENIA ROAD ADELPHI PARK ESTATE SINGAPORE 578836", "POSTAL": "578836", "X": "27468.47825935669", "Y": "37594.785640385", "LATITUDE": "1.356268403953587", "LONGITUDE": "103.8285425087829"}, {"SEARCHVAL": "ADELPHI PARK ESTATE", "BLK_NO": "44", "ROAD_NAME": "GARDENIA ROAD", "BUILDING": "ADELPHI PARK ESTATE", "ADDRESS": "44 GARDENIA ROAD ADELPHI PARK ESTATE SINGAPORE 578838", "POSTAL": "578838", "X": "27449.36490541045", "Y": "37587.01155091077", "LATITUDE": "1.356198097508793", "LONGITUDE": "103.8283707629537"}, {"SEARCHVAL": "ADELPHI PARK ESTATE", "BLK_NO": "5", "ROAD_NAME": "CARNATION DRIVE", "BUILDING": "ADELPHI PARK ESTATE", "ADDRESS": "5 CARNATION DRIVE ADELPHI PARK ESTATE SINGAPORE 579540", "POSTAL": "579540", "X": "27576.70010334626", "Y": "37474.19608637132", "LATITUDE": "1.355177836707594", "LONGITUDE": "103.8295149544644"}, {"SEARCHVAL": "ADELPHI PARK ESTATE", "BLK_NO": "5", "ROAD_NAME": "DAFFODIL DRIVE", "BUILDING": "ADELPHI PARK ESTATE", "ADDRESS": "5 DAFFODIL DRIVE ADELPHI PARK ESTATE SINGAPORE 579054", "POSTAL": "579054", "X": "27462.4180036569", "Y": "37352.9187226966", "LATITUDE": "1.354081045559083", "LONGITUDE": "103.8284880577728"}, {"SEARCHVAL": "ADELPHI PARK ESTATE", "BLK_NO": "5", "ROAD_NAME": "GARDENIA ROAD", "BUILDING": "ADELPHI PARK ESTATE", "ADDRESS": "5 GARDENIA ROAD ADELPHI PARK ESTATE SINGAPORE 578813", "POSTAL": "578813", "X": "27590.85211100895", "Y": "37508.41827948205", "LATITUDE": "1.355487330235496", "LONGITUDE": "103.8296421189738"}, {"SEARCHVAL": "ADELPHI PARK ESTATE", "BLK_NO": "5", "ROAD_NAME": "JASMINE ROAD", "BUILDING": "ADELPHI PARK ESTATE", "ADDRESS": "5 JASMINE ROAD ADELPHI PARK ESTATE SINGAPORE 576580", "POSTAL": "576580", "X": "27642.39267582633", "Y": "37501.32782268897", "LATITUDE": "1.355423207334666", "LONGITUDE": "103.8301052445586"}, {"SEARCHVAL": "ADELPHI PARK ESTATE", "BLK_NO": "5", "ROAD_NAME": "MARIGOLD DRIVE", "BUILDING": "ADELPHI PARK ESTATE", "ADDRESS": "5 MARIGOLD DRIVE ADELPHI PARK ESTATE SINGAPORE 576395", "POSTAL": "576395", "X": "27528.98507872224", "Y": "37281.56945754401", "LATITUDE": "1.353435789330048", "LONGITUDE": "103.8290862070185"}, {"SEARCHVAL": "ADELPHI PARK ESTATE", "BLK_NO": "52", "ROAD_NAME": "GARDENIA ROAD", "BUILDING": "ADELPHI PARK ESTATE", "ADDRESS": "52 GARDENIA ROAD ADELPHI PARK ESTATE SINGAPORE 578842", "POSTAL": "578842", "X": "27417.47912823129", "Y": "37571.7548526451", "LATITUDE": "1.356060120754898", "LONGITUDE": "103.8280842487196"}, {"SEARCHVAL": "ADELPHI PARK ESTATE", "BLK_NO": "54", "ROAD_NAME": "GARDENIA ROAD", "BUILDING": "ADELPHI PARK ESTATE", "ADDRESS": "54 GARDENIA ROAD ADELPHI PARK ESTATE SINGAPORE 578843", "POSTAL": "578843", "X": "27407.44459546544", "Y": "37557.08928810246", "LATITUDE": "1.355927490413497", "LONGITUDE": "103.8279940821853"}, {"SEARCHVAL": "ADELPHI PARK ESTATE", "BLK_NO": "6", "ROAD_NAME": "GARDENIA ROAD", "BUILDING": "ADELPHI PARK ESTATE", "ADDRESS": "6 GARDENIA ROAD ADELPHI PARK ESTATE SINGAPORE 578814", "POSTAL": "578814", "X": "27606.04479248822", "Y": "37537.6302435156", "LATITUDE": "1.355751513042106", "LONGITUDE": "103.8297786347138"}, {"SEARCHVAL": "ADELPHI PARK ESTATE", "BLK_NO": "6", "ROAD_NAME": "ORCHID DRIVE", "BUILDING": "ADELPHI PARK ESTATE", "ADDRESS": "6 ORCHID DRIVE ADELPHI PARK ESTATE SINGAPORE 576162", "POSTAL": "576162", "X": "27569.39704423491", "Y": "37458.22152233683", "LATITUDE": "1.355033368333044", "LONGITUDE": "103.8294493319664"}, {"SEARCHVAL": "ADELPHI PARK ESTATE", "BLK_NO": "64", "ROAD_NAME": "GARDENIA ROAD", "BUILDING": "ADELPHI PARK ESTATE", "ADDRESS": "64 GARDENIA ROAD ADELPHI PARK ESTATE SINGAPORE 578848", "POSTAL": "578848", "X": "27371.92635756079", "Y": "37533.25164672174", "LATITUDE": "1.355711910544334", "LONGITUDE": "103.8276749281583"}, {"SEARCHVAL": "ADELPHI PARK ESTATE", "BLK_NO": "7", "ROAD_NAME": "GARDENIA ROAD", "BUILDING": "ADELPHI PARK ESTATE", "ADDRESS": "7 GARDENIA ROAD ADELPHI PARK ESTATE SINGAPORE 578815", "POSTAL": "578815", "X": "27575.23074407689", "Y": "37524.36859886162", "LATITUDE": "1.355631579025101", "LONGITUDE": "103.8295017506041"}, {"SEARCHVAL": "ADELPHI PARK ESTATE", "BLK_NO": "7", "ROAD_NAME": "JASMINE ROAD", "BUILDING": "ADELPHI PARK ESTATE", "ADDRESS": "7 JASMINE ROAD ADELPHI PARK ESTATE SINGAPORE 576581", "POSTAL": "576581", "X": "27645.66397897061", "Y": "37495.08931883238", "LATITUDE": "1.355366788566279", "LONGITUDE": "103.8301346394185"}, {"SEARCHVAL": "ADELPHI PARK ESTATE", "BLK_NO": "7", "ROAD_NAME": "MARIGOLD DRIVE", "BUILDING": "ADELPHI PARK ESTATE", "ADDRESS": "7 MARIGOLD DRIVE ADELPHI PARK ESTATE SINGAPORE 576406", "POSTAL": "576406", "X": "27511.39193425886", "Y": "37289.19647488371", "LATITUDE": "1.353504765076486", "LONGITUDE": "103.8289281211806"}, {"SEARCHVAL": "ADELPHI PARK ESTATE", "BLK_NO": "72", "ROAD_NAME": "GARDENIA ROAD", "BUILDING": "ADELPHI PARK ESTATE", "ADDRESS": "72 GARDENIA ROAD ADELPHI PARK ESTATE SINGAPORE 578852", "POSTAL": "578852", "X": "27352.45572033525", "Y": "37501.17766322009", "LATITUDE": "1.355421844441296", "LONGITUDE": "103.8274999724965"}, {"SEARCHVAL": "ADELPHI PARK ESTATE", "BLK_NO": "75", "ROAD_NAME": "GARDENIA ROAD", "BUILDING": "ADELPHI PARK ESTATE", "ADDRESS": "75 GARDENIA ROAD ADELPHI PARK ESTATE SINGAPORE 578969", "POSTAL": "578969", "X": "27389.51496182662", "Y": "37486.21725824848", "LATITUDE": "1.355286548649916", "LONGITUDE": "103.8278329741822"}, {"SEARCHVAL": "ADELPHI PARK ESTATE", "BLK_NO": "77", "ROAD_NAME": "GARDENIA ROAD", "BUILDING": "ADELPHI PARK ESTATE", "ADDRESS": "77 GARDENIA ROAD ADELPHI PARK ESTATE SINGAPORE 578880", "POSTAL": "578880", "X": "27365.00915470533", "Y": "37460.66502639465", "LATITUDE": "1.355055462850092", "LONGITUDE": "103.8276127741261"}, {"SEARCHVAL": "ADELPHI PARK ESTATE", "BLK_NO": "8", "ROAD_NAME": "DAFFODIL DRIVE", "BUILDING": "ADELPHI PARK ESTATE", "ADDRESS": "8 DAFFODIL DRIVE ADELPHI PARK ESTATE SINGAPORE 579056", "POSTAL": "579056", "X": "27501.4662451623", "Y": "37381.854703255", "LATITUDE": "1.354342732946797", "LONGITUDE": "103.8288389309372"}, {"SEARCHVAL": "ADELPHI PARK ESTATE", "BLK_NO": "8", "ROAD_NAME": "GARDENIA ROAD", "BUILDING": "ADELPHI PARK ESTATE", "ADDRESS": "8 GARDENIA ROAD ADELPHI PARK ESTATE SINGAPORE 578816", "POSTAL": "578816", "X": "27600.37130108383", "Y": "37543.17261401378", "LATITUDE": "1.355801636191472", "LONGITUDE": "103.8297276546235"}, {"SEARCHVAL": "ADELPHI PARK ESTATE", "BLK_NO": "8", "ROAD_NAME": "MARIGOLD DRIVE", "BUILDING": "ADELPHI PARK ESTATE", "ADDRESS": "8 MARIGOLD DRIVE ADELPHI PARK ESTATE SINGAPORE 576407", "POSTAL": "576407", "X": "27606.6011180291", "Y": "37376.48507213965", "LATITUDE": "1.354294173491993", "LONGITUDE": "103.8297836357826"}, {"SEARCHVAL": "ADELPHI PARK ESTATE", "BLK_NO": "8", "ROAD_NAME": "ORCHID DRIVE", "BUILDING": "ADELPHI PARK ESTATE", "ADDRESS": "8 ORCHID DRIVE ADELPHI PARK ESTATE SINGAPORE 576164", "POSTAL": "576164", "X": "27561.34996781591", "Y": "37468.81819209643", "LATITUDE": "1.355129200723785", "LONGITUDE": "103.8293770236085"}, {"SEARCHVAL": "ADELPHI PARK ESTATE", "BLK_NO": "82", "ROAD_NAME": "GARDENIA ROAD", "BUILDING": "ADELPHI PARK ESTATE", "ADDRESS": "82 GARDENIA ROAD ADELPHI PARK ESTATE SINGAPORE 578878", "POSTAL": "578878", "X": "27274.56981168594", "Y": "37450.35299675353", "LATITUDE": "1.35496220245753", "LONGITUDE": "103.8268001181989"}, {"SEARCHVAL": "ADELPHI PARK ESTATE", "BLK_NO": "83", "ROAD_NAME": "GARDENIA ROAD", "BUILDING": "ADELPHI PARK ESTATE", "ADDRESS": "83 GARDENIA ROAD ADELPHI PARK ESTATE SINGAPORE 578857", "POSTAL": "578857", "X": "27375.4495811332", "Y": "37432.20116584748", "LATITUDE": "1.354798046050927", "LONGITUDE": "103.8277065887256"}, {"SEARCHVAL": "ADELPHI PARK ESTATE", "BLK_NO": "85", "ROAD_NAME": "GARDENIA ROAD", "BUILDING": "ADELPHI PARK ESTATE", "ADDRESS": "85 GARDENIA ROAD ADELPHI PARK ESTATE SINGAPORE 578858", "POSTAL": "578858", "X": "27362.70603355672", "Y": "37406.29903610051", "LATITUDE": "1.354563796141166", "LONGITUDE": "103.8275920802456"}, {"SEARCHVAL": "ADELPHI PARK ESTATE", "BLK_NO": "86", "ROAD_NAME": "GARDENIA ROAD", "BUILDING": "ADELPHI PARK ESTATE", "ADDRESS": "86 GARDENIA ROAD ADELPHI PARK ESTATE SINGAPORE 578859", "POSTAL": "578859", "X": "27322.1771730911", "Y": "37464.47782376781", "LATITUDE": "1.355089943486576", "LONGITUDE": "103.827227900894"}, {"SEARCHVAL": "ADELPHI PARK ESTATE", "BLK_NO": "87", "ROAD_NAME": "GARDENIA ROAD", "BUILDING": "ADELPHI PARK ESTATE", "ADDRESS": "87 GARDENIA ROAD ADELPHI PARK ESTATE SINGAPORE 578860", "POSTAL": "578860", "X": "27391.20748694055", "Y": "37400.19940175489", "LATITUDE": "1.354508633816665", "LONGITUDE": "103.8278481843696"}, {"SEARCHVAL": "ADELPHI PARK ESTATE", "BLK_NO": "89", "ROAD_NAME": "GARDENIA ROAD", "BUILDING": "ADELPHI PARK ESTATE", "ADDRESS": "89 GARDENIA ROAD ADELPHI PARK ESTATE SINGAPORE 578862", "POSTAL": "578862", "X": "27358.96197477449", "Y": "37355.1394241266", "LATITUDE": "1.354101126743189", "LONGITUDE": "103.82755843855"}, {"SEARCHVAL": "ADELPHI PARK ESTATE", "BLK_NO": "8A", "ROAD_NAME": "MARIGOLD DRIVE", "BUILDING": "ADELPHI PARK ESTATE", "ADDRESS": "8A MARIGOLD DRIVE ADELPHI PARK ESTATE SINGAPORE 576408", "POSTAL": "576408", "X": "27601.45586347673", "Y": "37371.33031344041", "LATITUDE": "1.354247555620697", "LONGITUDE": "103.829737402415"}, {"SEARCHVAL": "ADELPHI PARK ESTATE", "BLK_NO": "9", "ROAD_NAME": "GLADIOLA DRIVE", "BUILDING": "ADELPHI PARK ESTATE", "ADDRESS": "9 GLADIOLA DRIVE ADELPHI PARK ESTATE SINGAPORE 578791", "POSTAL": "578791", "X": "27497.90212954395", "Y": "37422.71454412304", "LATITUDE": "1.354712254741397", "LONGITUDE": "103.8288069043694"}, {"SEARCHVAL": "ADELPHI PARK ESTATE", "BLK_NO": "9", "ROAD_NAME": "ORCHID DRIVE", "BUILDING": "ADELPHI PARK ESTATE", "ADDRESS": "9 ORCHID DRIVE ADELPHI PARK ESTATE SINGAPORE 576165", "POSTAL": "576165", "X": "27534.22782645002", "Y": "37452.67857674696", "LATITUDE": "1.354983239376013", "LONGITUDE": "103.8291333138138"}, {"SEARCHVAL": "ADELPHI PARK ESTATE", "BLK_NO": "92", "ROAD_NAME": "GARDENIA ROAD", "BUILDING": "ADELPHI PARK ESTATE", "ADDRESS": "92 GARDENIA ROAD ADELPHI PARK ESTATE SINGAPORE 578865", "POSTAL": "578865", "X": "27308.38157093618", "Y": "37447.88567179255", "LATITUDE": "1.354939889654408", "LONGITUDE": "103.8271039388392"}, {"SEARCHVAL": "ADELPHI PARK ESTATE", "BLK_NO": "95", "ROAD_NAME": "GARDENIA ROAD", "BUILDING": "ADELPHI PARK ESTATE", "ADDRESS": "95 GARDENIA ROAD ADELPHI PARK ESTATE SINGAPORE 578868", "POSTAL": "578868", "X": "27317.85466287285", "Y": "37388.52001594938", "LATITUDE": "1.354403008018138", "LONGITUDE": "103.827189062065"}, {"SEARCHVAL": "ADELPHI PARK ESTATE", "BLK_NO": "96", "ROAD_NAME": "GARDENIA ROAD", "BUILDING": "ADELPHI PARK ESTATE", "ADDRESS": "96 GARDENIA ROAD ADELPHI PARK ESTATE SINGAPORE 578869", "POSTAL": "578869", "X": "27302.33793235943", "Y": "37435.47207550704", "LATITUDE": "1.354827625368414", "LONGITUDE": "103.8270496331171"}, {"SEARCHVAL": "ADELPHI PARK ESTATE", "BLK_NO": "15A", "ROAD_NAME": "JASMINE ROAD", "BUILDING": "ADELPHI PARK ESTATE", "ADDRESS": "15A JASMINE ROAD ADELPHI PARK ESTATE SINGAPORE 576584", "POSTAL": "576584", "X": "27648.59028763697", "Y": "37474.34200832061", "LATITUDE": "1.355179157311784", "LONGITUDE": "103.8301609344482"}, {"SEARCHVAL": "ADELPHI PARK ESTATE", "BLK_NO": "19A", "ROAD_NAME": "JASMINE ROAD", "BUILDING": "ADELPHI PARK ESTATE", "ADDRESS": "19A JASMINE ROAD ADELPHI PARK ESTATE SINGAPORE 576586", "POSTAL": "576586", "X": "27644.93340064771", "Y": "37460.75359051488", "LATITUDE": "1.355056268455548", "LONGITUDE": "103.8301280751056"}, {"SEARCHVAL": "ADELPHI PARK ESTATE", "BLK_NO": "21A", "ROAD_NAME": "JASMINE ROAD", "BUILDING": "ADELPHI PARK ESTATE", "ADDRESS": "21A JASMINE ROAD ADELPHI PARK ESTATE SINGAPORE 576587", "POSTAL": "576587", "X": "27641.6564071225", "Y": "37454.54468874633", "LATITUDE": "1.355000117319103", "LONGITUDE": "103.8300986292669"}, {"SEARCHVAL": "ADELPHI PARK ESTATE", "BLK_NO": "7A", "ROAD_NAME": "JASMINE ROAD", "BUILDING": "ADELPHI PARK ESTATE", "ADDRESS": "7A JASMINE ROAD ADELPHI PARK ESTATE SINGAPORE 576581", "POSTAL": "576581", "X": "27645.66400923859", "Y": "37495.0892885644", "LATITUDE": "1.355366788292547", "LONGITUDE": "103.8301346396905"}, {"SEARCHVAL": "ADELPHI PARK ESTATE", "BLK_NO": "9A", "ROAD_NAME": "JASMINE ROAD", "BUILDING": "ADELPHI PARK ESTATE", "ADDRESS": "9A JASMINE ROAD ADELPHI PARK ESTATE SINGAPORE 576582", "POSTAL": "576582", "X": "27647.66100000031", "Y": "37488.39549369738", "LATITUDE": "1.355306252018873", "LONGITUDE": "103.8301525840295"}, {"SEARCHVAL": "ADL BUILDING", "BLK_NO": "41", "ROAD_NAME": "TOH GUAN ROAD EAST", "BUILDING": "ADL BUILDING", "ADDRESS": "41 TOH GUAN ROAD EAST ADL BUILDING SINGAPORE 608605", "POSTAL": "608605", "X": "19443.46623184904", "Y": "35427.01973639801", "LATITUDE": "1.336662692655971", "LONGITUDE": "103.7564331700989"}, {"SEARCHVAL": "ADMIRALTY CLOVER", "BLK_NO": "705", "ROAD_NAME": "WOODLANDS DRIVE 40", "BUILDING": "ADMIRALTY CLOVER", "ADDRESS": "705 WOODLANDS DRIVE 40 ADMIRALTY CLOVER SINGAPORE 730705", "POSTAL": "730705", "X": "23864.51017884538", "Y": "46826.46691821702", "LATITUDE": "1.439756112269033", "LONGITUDE": "103.796157190366"}, {"SEARCHVAL": "ADMIRALTY CLOVER", "BLK_NO": "707", "ROAD_NAME": "WOODLANDS DRIVE 40", "BUILDING": "ADMIRALTY CLOVER", "ADDRESS": "707 WOODLANDS DRIVE 40 ADMIRALTY CLOVER SINGAPORE 730707", "POSTAL": "730707", "X": "23918.97811170761", "Y": "46921.66087719239", "LATITUDE": "1.440617019717227", "LONGITUDE": "103.7966466237498"}, {"SEARCHVAL": "ADMIRALTY CLOVER", "BLK_NO": "711A", "ROAD_NAME": "WOODLANDS DRIVE 40", "BUILDING": "ADMIRALTY CLOVER", "ADDRESS": "711A WOODLANDS DRIVE 40 ADMIRALTY CLOVER SINGAPORE 731711", "POSTAL": "731711", "X": "23957.06713054143", "Y": "46959.62382987328", "LATITUDE": "1.440960348343984", "LONGITUDE": "103.796988885177"}, {"SEARCHVAL": "ADMIRALTY FLORA", "BLK_NO": "691C", "ROAD_NAME": "WOODLANDS DRIVE 73", "BUILDING": "ADMIRALTY FLORA", "ADDRESS": "691C WOODLANDS DRIVE 73 ADMIRALTY FLORA SINGAPORE 733691", "POSTAL": "733691", "X": "24964.46296335198", "Y": "46832.91321178153", "LATITUDE": "1.439814550818754", "LONGITUDE": "103.8060413316488"}, {"SEARCHVAL": "ADMIRALTY GROVE", "BLK_NO": "694", "ROAD_NAME": "WOODLANDS DRIVE 62", "BUILDING": "ADMIRALTY GROVE", "ADDRESS": "694 WOODLANDS DRIVE 62 ADMIRALTY GROVE SINGAPORE 730694", "POSTAL": "730694", "X": "24847.36678867973", "Y": "46638.16177049652", "LATITUDE": "1.438053276678135", "LONGITUDE": "103.8049891306848"}, {"SEARCHVAL": "ADMIRALTY GROVE", "BLK_NO": "693E", "ROAD_NAME": "WOODLANDS AVENUE 6", "BUILDING": "ADMIRALTY GROVE", "ADDRESS": "693E WOODLANDS AVENUE 6 ADMIRALTY GROVE SINGAPORE 735693", "POSTAL": "735693", "X": "24800.84622949734", "Y": "46624.57235384732", "LATITUDE": "1.43793037367291", "LONGITUDE": "103.8045711002007"}, {"SEARCHVAL": "ADMIRALTY GROVE", "BLK_NO": "694E", "ROAD_NAME": "WOODLANDS DRIVE 62", "BUILDING": "ADMIRALTY GROVE", "ADDRESS": "694E WOODLANDS DRIVE 62 ADMIRALTY GROVE SINGAPORE 735694", "POSTAL": "735694", "X": "24839.32001494057", "Y": "46685.27685341425", "LATITUDE": "1.43847936745419", "LONGITUDE": "103.8049168174034"}, {"SEARCHVAL": "ADAM PLACE APARTMENT", "BLK_NO": "5C", "ROAD_NAME": "ADAM ROAD", "BUILDING": "ADAM PLACE APARTMENT", "ADDRESS": "5C ADAM ROAD ADAM PLACE APARTMENT SINGAPORE 289883", "POSTAL": "289883", "X": "25702.00631260499", "Y": "34151.73720450141", "LATITUDE": "1.325130614042615", "LONGITUDE": "103.8126698657122"}, {"SEARCHVAL": "ADAM ROAD PRESBYTERIAN CENTRE", "BLK_NO": "25", "ROAD_NAME": "ADAM ROAD", "BUILDING": "ADAM ROAD PRESBYTERIAN CENTRE", "ADDRESS": "25 ADAM ROAD ADAM ROAD PRESBYTERIAN CENTRE SINGAPORE 289894", "POSTAL": "289894", "X": "25776.35265296977", "Y": "34425.78047201224", "LATITUDE": "1.327608969738585", "LONGITUDE": "103.8133378877809"}, {"SEARCHVAL": "ADELPHI PARK ESTATE", "BLK_NO": "1", "ROAD_NAME": "GLADIOLA DRIVE", "BUILDING": "ADELPHI PARK ESTATE", "ADDRESS": "1 GLADIOLA DRIVE ADELPHI PARK ESTATE SINGAPORE 578783", "POSTAL": "578783", "X": "27524.93582786061", "Y": "37347.00717360154", "LATITUDE": "1.354027584677734", "LONGITUDE": "103.8290498208578"}, {"SEARCHVAL": "ADMIRALTY VISTA", "BLK_NO": "717A", "ROAD_NAME": "WOODLANDS DRIVE 70", "BUILDING": "ADMIRALTY VISTA", "ADDRESS": "717A WOODLANDS DRIVE 70 ADMIRALTY VISTA SINGAPORE 731717", "POSTAL": "731717", "X": "24144.04999112617", "Y": "46913.0022058934", "LATITUDE": "1.44053874571164", "LONGITUDE": "103.7986691146255"}, {"SEARCHVAL": "ADORA GREEN", "BLK_NO": "348", "ROAD_NAME": "YISHUN AVENUE 11", "BUILDING": "ADORA GREEN", "ADDRESS": "348 YISHUN AVENUE 11 ADORA GREEN SINGAPORE 760348", "POSTAL": "760348", "X": "29069.63292612415", "Y": "45374.45023475587", "LATITUDE": "1.426624883914493", "LONGITUDE": "103.8429302138656"}, {"SEARCHVAL": "ADELPHI PARK ESTATE", "BLK_NO": "1", "ROAD_NAME": "ORCHID DRIVE", "BUILDING": "ADELPHI PARK ESTATE", "ADDRESS": "1 ORCHID DRIVE ADELPHI PARK ESTATE SINGAPORE 576157", "POSTAL": "576157", "X": "27563.76341576595", "Y": "37394.88401086628", "LATITUDE": "1.354460566346064", "LONGITUDE": "103.8293987110836"}, {"SEARCHVAL": "ADELPHI PARK ESTATE", "BLK_NO": "10", "ROAD_NAME": "MARIGOLD DRIVE", "BUILDING": "ADELPHI PARK ESTATE", "ADDRESS": "10 MARIGOLD DRIVE ADELPHI PARK ESTATE SINGAPORE 576410", "POSTAL": "576410", "X": "27593.07568789739", "Y": "37356.47975098155", "LATITUDE": "1.354113252306547", "LONGITUDE": "103.8296621013268"}, {"SEARCHVAL": "ADELPHI PARK ESTATE", "BLK_NO": "100", "ROAD_NAME": "GARDENIA ROAD", "BUILDING": "ADELPHI PARK ESTATE", "ADDRESS": "100 GARDENIA ROAD ADELPHI PARK ESTATE SINGAPORE 578872", "POSTAL": "578872", "X": "27289.81603722833", "Y": "37419.16114336997", "LATITUDE": "1.354680114809373", "LONGITUDE": "103.8269371161621"}, {"SEARCHVAL": "ADELPHI PARK ESTATE", "BLK_NO": "106", "ROAD_NAME": "GARDENIA ROAD", "BUILDING": "ADELPHI PARK ESTATE", "ADDRESS": "106 GARDENIA ROAD ADELPHI PARK ESTATE SINGAPORE 578875", "POSTAL": "578875", "X": "27276.38331792969", "Y": "37403.4086555317", "LATITUDE": "1.354537654594239", "LONGITUDE": "103.8268164148628"}, {"SEARCHVAL": "ADELPHI PARK ESTATE", "BLK_NO": "10A", "ROAD_NAME": "MARIGOLD DRIVE", "BUILDING": "ADELPHI PARK ESTATE", "ADDRESS": "10A MARIGOLD DRIVE ADELPHI PARK ESTATE SINGAPORE 576411", "POSTAL": "576411", "X": "27585.51689459104", "Y": "37348.40842990763", "LATITUDE": "1.35404025804736", "LONGITUDE": "103.8295941808023"}, {"SEARCHVAL": "ADELPHI PARK ESTATE", "BLK_NO": "11", "ROAD_NAME": "GARDENIA ROAD", "BUILDING": "ADELPHI PARK ESTATE", "ADDRESS": "11 GARDENIA ROAD ADELPHI PARK ESTATE SINGAPORE 578819", "POSTAL": "578819", "X": "27548.55563056283", "Y": "37548.43128270097", "LATITUDE": "1.355849192975688", "LONGITUDE": "103.8292620569805"}, {"SEARCHVAL": "ADELPHI PARK ESTATE", "BLK_NO": "12", "ROAD_NAME": "GLADIOLA DRIVE", "BUILDING": "ADELPHI PARK ESTATE", "ADDRESS": "12 GLADIOLA DRIVE ADELPHI PARK ESTATE SINGAPORE 578794", "POSTAL": "578794", "X": "27505.88936615922", "Y": "37462.20905677974", "LATITUDE": "1.355069429186491", "LONGITUDE": "103.8288786742105"}, {"SEARCHVAL": "ADELPHI PARK ESTATE", "BLK_NO": "12A", "ROAD_NAME": "MARIGOLD DRIVE", "BUILDING": "ADELPHI PARK ESTATE", "ADDRESS": "12A MARIGOLD DRIVE ADELPHI PARK ESTATE SINGAPORE 576414", "POSTAL": "576414", "X": "27569.86592557095", "Y": "37328.67349264771", "LATITUDE": "1.353861782077103", "LONGITUDE": "103.8294535470326"}, {"SEARCHVAL": "ADELPHI PARK ESTATE", "BLK_NO": "14", "ROAD_NAME": "DAFFODIL DRIVE", "BUILDING": "ADELPHI PARK ESTATE", "ADDRESS": "14 DAFFODIL DRIVE ADELPHI PARK ESTATE SINGAPORE 579061", "POSTAL": "579061", "X": "27472.63223744184", "Y": "37425.52438158728", "LATITUDE": "1.354737665473517", "LONGITUDE": "103.8285798379748"}, {"SEARCHVAL": "ADELPHI PARK ESTATE", "BLK_NO": "14", "ROAD_NAME": "ORCHID DRIVE", "BUILDING": "ADELPHI PARK ESTATE", "ADDRESS": "14 ORCHID DRIVE ADELPHI PARK ESTATE SINGAPORE 576169", "POSTAL": "576169", "X": "27513.62338082213", "Y": "37510.4972964786", "LATITUDE": "1.355506130960485", "LONGITUDE": "103.8289481685655"}, {"SEARCHVAL": "ADELPHI PARK ESTATE", "BLK_NO": "14A", "ROAD_NAME": "GLADIOLA DRIVE", "BUILDING": "ADELPHI PARK ESTATE", "ADDRESS": "14A GLADIOLA DRIVE ADELPHI PARK ESTATE SINGAPORE 578802", "POSTAL": "578802", "X": "27480.07994724717", "Y": "37480.86360862851", "LATITUDE": "1.355238133871092", "LONGITUDE": "103.8286467595094"}, {"SEARCHVAL": "ADELPHI PARK ESTATE", "BLK_NO": "15", "ROAD_NAME": "DAFFODIL DRIVE", "BUILDING": "ADELPHI PARK ESTATE", "ADDRESS": "15 DAFFODIL DRIVE ADELPHI PARK ESTATE SINGAPORE 579062", "POSTAL": "579062", "X": "27418.25644032098", "Y": "37429.23502451368", "LATITUDE": "1.354771222192905", "LONGITUDE": "103.8280912361475"}, {"SEARCHVAL": "ADELPHI PARK ESTATE", "BLK_NO": "15", "ROAD_NAME": "JASMINE ROAD", "BUILDING": "ADELPHI PARK ESTATE", "ADDRESS": "15 JASMINE ROAD ADELPHI PARK ESTATE SINGAPORE 576584", "POSTAL": "576584", "X": "27648.59025736898", "Y": "37474.34197805263", "LATITUDE": "1.355179157038051", "LONGITUDE": "103.8301609341762"}, {"SEARCHVAL": "ADELPHI PARK ESTATE", "BLK_NO": "15", "ROAD_NAME": "ORCHID DRIVE", "BUILDING": "ADELPHI PARK ESTATE", "ADDRESS": "15 ORCHID DRIVE ADELPHI PARK ESTATE SINGAPORE 576170", "POSTAL": "576170", "X": "27505.84562892281", "Y": "37481.84692461602", "LATITUDE": "1.355247027070418", "LONGITUDE": "103.8288782808786"}, {"SEARCHVAL": "ADELPHI PARK ESTATE", "BLK_NO": "16", "ROAD_NAME": "GARDENIA ROAD", "BUILDING": "ADELPHI PARK ESTATE", "ADDRESS": "16 GARDENIA ROAD ADELPHI PARK ESTATE SINGAPORE 578823", "POSTAL": "578823", "X": "27577.67942395899", "Y": "37565.33973510563", "LATITUDE": "1.356002107426748", "LONGITUDE": "103.8295237530077"}, {"SEARCHVAL": "ADELPHI PARK ESTATE", "BLK_NO": "16", "ROAD_NAME": "GLADIOLA DRIVE", "BUILDING": "ADELPHI PARK ESTATE", "ADDRESS": "16 GLADIOLA DRIVE ADELPHI PARK ESTATE SINGAPORE 578797", "POSTAL": "578797", "X": "27464.01509381738", "Y": "37489.18128082156", "LATITUDE": "1.355313355651395", "LONGITUDE": "103.8285024062177"}, {"SEARCHVAL": "ADELPHI PARK ESTATE", "BLK_NO": "17", "ROAD_NAME": "GARDENIA ROAD", "BUILDING": "ADELPHI PARK ESTATE", "ADDRESS": "17 GARDENIA ROAD ADELPHI PARK ESTATE SINGAPORE 578824", "POSTAL": "578824", "X": "27516.25448584277", "Y": "37568.46127226576", "LATITUDE": "1.35603033655983", "LONGITUDE": "103.8289718098176"}, {"SEARCHVAL": "ADELPHI PARK ESTATE", "BLK_NO": "17", "ROAD_NAME": "JASMINE ROAD", "BUILDING": "ADELPHI PARK ESTATE", "ADDRESS": "17 JASMINE ROAD ADELPHI PARK ESTATE SINGAPORE 576585", "POSTAL": "576585", "X": "27647.1478063371", "Y": "37467.44169500098", "LATITUDE": "1.35511675331776", "LONGITUDE": "103.8301479728986"}, {"SEARCHVAL": "ADELPHI PARK ESTATE", "BLK_NO": "17", "ROAD_NAME": "ORCHID DRIVE", "BUILDING": "ADELPHI PARK ESTATE", "ADDRESS": "17 ORCHID DRIVE ADELPHI PARK ESTATE SINGAPORE 576172", "POSTAL": "576172", "X": "27489.19239615742", "Y": "37493.48641721904", "LATITUDE": "1.35535229021552", "LONGITUDE": "103.828728640566"}, {"SEARCHVAL": "ADELPHI PARK ESTATE", "BLK_NO": "18", "ROAD_NAME": "MARIGOLD DRIVE", "BUILDING": "ADELPHI PARK ESTATE", "ADDRESS": "18 MARIGOLD DRIVE ADELPHI PARK ESTATE SINGAPORE 576420", "POSTAL": "576420", "X": "27445.18232408073", "Y": "37350.67925511859", "LATITUDE": "1.354060792295031", "LONGITUDE": "103.8283331841117"}, {"SEARCHVAL": "ADELPHI PARK ESTATE", "BLK_NO": "18", "ROAD_NAME": "ORCHID DRIVE", "BUILDING": "ADELPHI PARK ESTATE", "ADDRESS": "18 ORCHID DRIVE ADELPHI PARK ESTATE SINGAPORE 576173", "POSTAL": "576173", "X": "27480.8844399862", "Y": "37532.98265515082", "LATITUDE": "1.355709479983554", "LONGITUDE": "103.8286539874944"}, {"SEARCHVAL": "ADELPHI PARK ESTATE", "BLK_NO": "19", "ROAD_NAME": "CARNATION DRIVE", "BUILDING": "ADELPHI PARK ESTATE", "ADDRESS": "19 CARNATION DRIVE ADELPHI PARK ESTATE SINGAPORE 579546", "POSTAL": "579546", "X": "27475.3582325913", "Y": "37550.19944750518", "LATITUDE": "1.35586518242562", "LONGITUDE": "103.8286043306199"}, {"SEARCHVAL": "ADELPHI PARK ESTATE", "BLK_NO": "19", "ROAD_NAME": "DAFFODIL DRIVE", "BUILDING": "ADELPHI PARK ESTATE", "ADDRESS": "19 DAFFODIL DRIVE ADELPHI PARK ESTATE SINGAPORE 579066", "POSTAL": "579066", "X": "27384.32593976986", "Y": "37450.49225974642", "LATITUDE": "1.354963464376784", "LONGITUDE": "103.8277863481827"}, {"SEARCHVAL": "ADELPHI PARK ESTATE", "BLK_NO": "19", "ROAD_NAME": "JASMINE ROAD", "BUILDING": "ADELPHI PARK ESTATE", "ADDRESS": "19 JASMINE ROAD ADELPHI PARK ESTATE SINGAPORE 576586", "POSTAL": "576586", "X": "27644.93340064771", "Y": "37460.75359051488", "LATITUDE": "1.355056268455548", "LONGITUDE": "103.8301280751056"}, {"SEARCHVAL": "ADELPHI PARK ESTATE", "BLK_NO": "19", "ROAD_NAME": "MARIGOLD DRIVE", "BUILDING": "ADELPHI PARK ESTATE", "ADDRESS": "19 MARIGOLD DRIVE ADELPHI PARK ESTATE SINGAPORE 576421", "POSTAL": "576421", "X": "27425.90845901705", "Y": "37318.50923130289", "LATITUDE": "1.353769857685398", "LONGITUDE": "103.8281599966156"}, {"SEARCHVAL": "ADELPHI PARK ESTATE", "BLK_NO": "2", "ROAD_NAME": "DAFFODIL DRIVE", "BUILDING": "ADELPHI PARK ESTATE", "ADDRESS": "2 DAFFODIL DRIVE ADELPHI PARK ESTATE SINGAPORE 579051", "POSTAL": "579051", "X": "27507.70387124643", "Y": "37325.32191881165", "LATITUDE": "1.353831470672156", "LONGITUDE": "103.8288949809684"}, {"SEARCHVAL": "ADELPHI PARK ESTATE", "BLK_NO": "2", "ROAD_NAME": "GARDENIA ROAD", "BUILDING": "ADELPHI PARK ESTATE", "ADDRESS": "2 GARDENIA ROAD ADELPHI PARK ESTATE SINGAPORE 578810", "POSTAL": "578810", "X": "27617.43275814597", "Y": "37526.67047902383", "LATITUDE": "1.355652396983591", "LONGITUDE": "103.8298809631441"}, {"SEARCHVAL": "ADELPHI PARK ESTATE", "BLK_NO": "2", "ROAD_NAME": "GLADIOLA DRIVE", "BUILDING": "ADELPHI PARK ESTATE", "ADDRESS": "2 GLADIOLA DRIVE ADELPHI PARK ESTATE SINGAPORE 578784", "POSTAL": "578784", "X": "27551.78988569509", "Y": "37379.72286862507", "LATITUDE": "1.354323454194635", "LONGITUDE": "103.8292911214002"}, {"SEARCHVAL": "ADELPHI PARK ESTATE", "BLK_NO": "20", "ROAD_NAME": "DAFFODIL DRIVE", "BUILDING": "ADELPHI PARK ESTATE", "ADDRESS": "20 DAFFODIL DRIVE ADELPHI PARK ESTATE SINGAPORE 579067", "POSTAL": "579067", "X": "27429.49294498842", "Y": "37456.13602799177", "LATITUDE": "1.355014505508256", "LONGITUDE": "103.8281922029081"}, {"SEARCHVAL": "ADELPHI PARK ESTATE", "BLK_NO": "20", "ROAD_NAME": "GARDENIA ROAD", "BUILDING": "ADELPHI PARK ESTATE", "ADDRESS": "20 GARDENIA ROAD ADELPHI PARK ESTATE SINGAPORE 578826", "POSTAL": "578826", "X": "27566.33510473371", "Y": "37576.42163091153", "LATITUDE": "1.356102327982452", "LONGITUDE": "103.8294218167381"}, {"SEARCHVAL": "ADELPHI PARK ESTATE", "BLK_NO": "20", "ROAD_NAME": "MARIGOLD DRIVE", "BUILDING": "ADELPHI PARK ESTATE", "ADDRESS": "20 MARIGOLD DRIVE ADELPHI PARK ESTATE SINGAPORE 576422", "POSTAL": "576422", "X": "27426.43745256867", "Y": "37350.89367351495", "LATITUDE": "1.3540627310632", "LONGITUDE": "103.8281647493432"}, {"SEARCHVAL": "ADELPHI PARK ESTATE", "BLK_NO": "22", "ROAD_NAME": "GARDENIA ROAD", "BUILDING": "ADELPHI PARK ESTATE", "ADDRESS": "22 GARDENIA ROAD ADELPHI PARK ESTATE SINGAPORE 578827", "POSTAL": "578827", "X": "27560.66246083379", "Y": "37581.96315390617", "LATITUDE": "1.356152443459562", "LONGITUDE": "103.8293708442485"}, {"SEARCHVAL": "ADELPHI PARK ESTATE", "BLK_NO": "22", "ROAD_NAME": "MARIGOLD DRIVE", "BUILDING": "ADELPHI PARK ESTATE", "ADDRESS": "22 MARIGOLD DRIVE ADELPHI PARK ESTATE SINGAPORE 576424", "POSTAL": "576424", "X": "27435.93969257269", "Y": "37366.25742963701", "LATITUDE": "1.354201675586034", "LONGITUDE": "103.828250132811"}, {"SEARCHVAL": "ADELPHI PARK ESTATE", "BLK_NO": "23", "ROAD_NAME": "JASMINE ROAD", "BUILDING": "ADELPHI PARK ESTATE", "ADDRESS": "23 JASMINE ROAD ADELPHI PARK ESTATE SINGAPORE 576588", "POSTAL": "576588", "X": "27630.92207857314", "Y": "37430.94002003781", "LATITUDE": "1.35478664496745", "LONGITUDE": "103.8300021746535"}, {"SEARCHVAL": "ADELPHI PARK ESTATE", "BLK_NO": "23", "ROAD_NAME": "ORCHID DRIVE", "BUILDING": "ADELPHI PARK ESTATE", "ADDRESS": "23 ORCHID DRIVE ADELPHI PARK ESTATE SINGAPORE 576178", "POSTAL": "576178", "X": "27424.02899883594", "Y": "37505.67061245628", "LATITUDE": "1.355462478547245", "LONGITUDE": "103.8281431048538"}, {"SEARCHVAL": "ADELPHI PARK ESTATE", "BLK_NO": "23A", "ROAD_NAME": "MARIGOLD DRIVE", "BUILDING": "ADELPHI PARK ESTATE", "ADDRESS": "23A MARIGOLD DRIVE ADELPHI PARK ESTATE SINGAPORE 576431", "POSTAL": "576431", "X": "27384.25886591803", "Y": "37347.4690933004", "LATITUDE": "1.354031759535884", "LONGITUDE": "103.8277857475994"}, {"SEARCHVAL": "ADELPHI PARK ESTATE", "BLK_NO": "25", "ROAD_NAME": "JASMINE ROAD", "BUILDING": "ADELPHI PARK ESTATE", "ADDRESS": "25 JASMINE ROAD ADELPHI PARK ESTATE SINGAPORE 576589", "POSTAL": "576589", "X": "27612.77061088197", "Y": "37411.98617836647", "LATITUDE": "1.35461523293986", "LONGITUDE": "103.8298390722019"}, {"SEARCHVAL": "ADELPHI PARK ESTATE", "BLK_NO": "25", "ROAD_NAME": "MARIGOLD DRIVE", "BUILDING": "ADELPHI PARK ESTATE", "ADDRESS": "25 MARIGOLD DRIVE ADELPHI PARK ESTATE SINGAPORE 576426", "POSTAL": "576426", "X": "27394.32172951661", "Y": "37362.33315527998", "LATITUDE": "1.354166185027576", "LONGITUDE": "103.8278761686195"}, {"SEARCHVAL": "ADELPHI PARK ESTATE", "BLK_NO": "25", "ROAD_NAME": "ORCHID DRIVE", "BUILDING": "ADELPHI PARK ESTATE", "ADDRESS": "25 ORCHID DRIVE ADELPHI PARK ESTATE SINGAPORE 576179", "POSTAL": "576179", "X": "27404.05427860934", "Y": "37497.4668386858", "LATITUDE": "1.355388286144699", "LONGITUDE": "103.8279636191655"}, {"SEARCHVAL": "ADELPHI PARK ESTATE", "BLK_NO": "25A", "ROAD_NAME": "MARIGOLD DRIVE", "BUILDING": "ADELPHI PARK ESTATE", "ADDRESS": "25A MARIGOLD DRIVE ADELPHI PARK ESTATE SINGAPORE 576432", "POSTAL": "576432", "X": "27400.59794728085", "Y": "37371.39983899891", "LATITUDE": "1.354248181014569", "LONGITUDE": "103.8279325643064"}, {"SEARCHVAL": "ADELPHI PARK ESTATE", "BLK_NO": "26", "ROAD_NAME": "GARDENIA ROAD", "BUILDING": "ADELPHI PARK ESTATE", "ADDRESS": "26 GARDENIA ROAD ADELPHI PARK ESTATE SINGAPORE 578829", "POSTAL": "578829", "X": "27549.31750598084", "Y": "37593.04595775157", "LATITUDE": "1.356252672220601", "LONGITUDE": "103.8292689022547"}, {"SEARCHVAL": "ADELPHI PARK ESTATE", "BLK_NO": "27", "ROAD_NAME": "MARIGOLD DRIVE", "BUILDING": "ADELPHI PARK ESTATE", "ADDRESS": "27 MARIGOLD DRIVE ADELPHI PARK ESTATE SINGAPORE 576427", "POSTAL": "576427", "X": "27410.31533211283", "Y": "37385.1292450726", "LATITUDE": "1.354372345069655", "LONGITUDE": "103.8280198810148"}, {"SEARCHVAL": "ADELPHI PARK ESTATE", "BLK_NO": "29", "ROAD_NAME": "JASMINE ROAD", "BUILDING": "ADELPHI PARK ESTATE", "ADDRESS": "29 JASMINE ROAD ADELPHI PARK ESTATE SINGAPORE 576591", "POSTAL": "576591", "X": "27574.49707841966", "Y": "37369.31906645931", "LATITUDE": "1.354229366245138", "LONGITUDE": "103.8294951603474"}, {"SEARCHVAL": "ADELPHI PARK ESTATE", "BLK_NO": "2G", "ROAD_NAME": "JASMINE ROAD", "BUILDING": "ADELPHI PARK ESTATE", "ADDRESS": "2G JASMINE ROAD ADELPHI PARK ESTATE SINGAPORE 576571", "POSTAL": "576571", "X": "27591.54897079803", "Y": "37579.5924140811", "LATITUDE": "1.356131003774024", "LONGITUDE": "103.829648379739"}, {"SEARCHVAL": "ADELPHI PARK ESTATE", "BLK_NO": "2H", "ROAD_NAME": "JASMINE ROAD", "BUILDING": "ADELPHI PARK ESTATE", "ADDRESS": "2H JASMINE ROAD ADELPHI PARK ESTATE SINGAPORE 576572", "POSTAL": "576572", "X": "27585.85084125586", "Y": "37585.10197408497", "LATITUDE": "1.356180830193673", "LONGITUDE": "103.8295971782488"}, {"SEARCHVAL": "ADELPHI PARK ESTATE", "BLK_NO": "2J", "ROAD_NAME": "JASMINE ROAD", "BUILDING": "ADELPHI PARK ESTATE", "ADDRESS": "2J JASMINE ROAD ADELPHI PARK ESTATE SINGAPORE 576573", "POSTAL": "576573", "X": "27580.15289332066", "Y": "37590.61147355288", "LATITUDE": "1.356230656064742", "LONGITUDE": "103.8295459783883"}, {"SEARCHVAL": "ADELPHI PARK ESTATE", "BLK_NO": "2K", "ROAD_NAME": "JASMINE ROAD", "BUILDING": "ADELPHI PARK ESTATE", "ADDRESS": "2K JASMINE ROAD ADELPHI PARK ESTATE SINGAPORE 576574", "POSTAL": "576574", "X": "27574.45440056268", "Y": "37596.12145731039", "LATITUDE": "1.35628048631443", "LONGITUDE": "103.8294947736301"}, {"SEARCHVAL": "ADELPHI PARK ESTATE", "BLK_NO": "3", "ROAD_NAME": "CARNATION DRIVE", "BUILDING": "ADELPHI PARK ESTATE", "ADDRESS": "3 CARNATION DRIVE ADELPHI PARK ESTATE SINGAPORE 579539", "POSTAL": "579539", "X": "27587.38409623876", "Y": "37459.70979909599", "LATITUDE": "1.355046828033516", "LONGITUDE": "103.8296109572778"}, {"SEARCHVAL": "ADELPHI PARK ESTATE", "BLK_NO": "3", "ROAD_NAME": "DAFFODIL DRIVE", "BUILDING": "ADELPHI PARK ESTATE", "ADDRESS": "3 DAFFODIL DRIVE ADELPHI PARK ESTATE SINGAPORE 579052", "POSTAL": "579052", "X": "27479.45470150746", "Y": "37351.71871821396", "LATITUDE": "1.354070193448743", "LONGITUDE": "103.828641143517"}, {"SEARCHVAL": "ADELPHI PARK ESTATE", "BLK_NO": "3", "ROAD_NAME": "GLADIOLA DRIVE", "BUILDING": "ADELPHI PARK ESTATE", "ADDRESS": "3 GLADIOLA DRIVE ADELPHI PARK ESTATE SINGAPORE 578785", "POSTAL": "578785", "X": "27523.05945501383", "Y": "37369.62904088013", "LATITUDE": "1.354232168762641", "LONGITUDE": "103.8290329600768"}, {"SEARCHVAL": "ADELPHI PARK ESTATE", "BLK_NO": "3", "ROAD_NAME": "JASMINE ROAD", "BUILDING": "ADELPHI PARK ESTATE", "ADDRESS": "3 JASMINE ROAD ADELPHI PARK ESTATE SINGAPORE 576579", "POSTAL": "576579", "X": "27638.00723847002", "Y": "37507.07244385406", "LATITUDE": "1.355475159589882", "LONGITUDE": "103.8300658384828"}, {"SEARCHVAL": "ADELPHI PARK ESTATE", "BLK_NO": "3", "ROAD_NAME": "MARIGOLD DRIVE", "BUILDING": "ADELPHI PARK ESTATE", "ADDRESS": "3 MARIGOLD DRIVE ADELPHI PARK ESTATE SINGAPORE 576384", "POSTAL": "576384", "X": "27546.34752061404", "Y": "37276.54515385441", "LATITUDE": "1.353390351585571", "LONGITUDE": "103.8292422197973"}, {"SEARCHVAL": "ADELPHI PARK ESTATE", "BLK_NO": "3", "ROAD_NAME": "ORCHID DRIVE", "BUILDING": "ADELPHI PARK ESTATE", "ADDRESS": "3 ORCHID DRIVE ADELPHI PARK ESTATE SINGAPORE 576159", "POSTAL": "576159", "X": "27557.25616248231", "Y": "37412.88637846895", "LATITUDE": "1.354623373253617", "LONGITUDE": "103.8293402389383"}, {"SEARCHVAL": "ADELPHI PARK ESTATE", "BLK_NO": "30", "ROAD_NAME": "GARDENIA ROAD", "BUILDING": "ADELPHI PARK ESTATE", "ADDRESS": "30 GARDENIA ROAD ADELPHI PARK ESTATE SINGAPORE 578831", "POSTAL": "578831", "X": "27538.02097990178", "Y": "37604.08060523681", "LATITUDE": "1.356352465468993", "LONGITUDE": "103.8291673954175"}, {"SEARCHVAL": "ADELPHI PARK ESTATE", "BLK_NO": "32A", "ROAD_NAME": "GARDENIA ROAD", "BUILDING": "ADELPHI PARK ESTATE", "ADDRESS": "32A GARDENIA ROAD ADELPHI PARK ESTATE SINGAPORE 578879", "POSTAL": "578879", "X": "27501.15766306873", "Y": "37603.47010000423", "LATITUDE": "1.356346943680515", "LONGITUDE": "103.8288361544306"}, {"SEARCHVAL": "ADELPHI PARK ESTATE", "BLK_NO": "35", "ROAD_NAME": "JASMINE ROAD", "BUILDING": "ADELPHI PARK ESTATE", "ADDRESS": "35 JASMINE ROAD ADELPHI PARK ESTATE SINGAPORE 576594", "POSTAL": "576594", "X": "27540.304426861", "Y": "37319.50338322856", "LATITUDE": "1.353778850429209", "LONGITUDE": "103.8291879180561"}, {"SEARCHVAL": "ADELPHI PARK ESTATE", "BLK_NO": "38", "ROAD_NAME": "GARDENIA ROAD", "BUILDING": "ADELPHI PARK ESTATE", "ADDRESS": "38 GARDENIA ROAD ADELPHI PARK ESTATE SINGAPORE 578835", "POSTAL": "578835", "X": "27476.46237836964", "Y": "37596.19779316522", "LATITUDE": "1.356281175102245", "LONGITUDE": "103.8286142512837"}, {"SEARCHVAL": "ADELPHI PARK ESTATE", "BLK_NO": "42", "ROAD_NAME": "GARDENIA ROAD", "BUILDING": "ADELPHI PARK ESTATE", "ADDRESS": "42 GARDENIA ROAD ADELPHI PARK ESTATE SINGAPORE 578837", "POSTAL": "578837", "X": "27459.38052068651", "Y": "37583.57813244499", "LATITUDE": "1.356167047078934", "LONGITUDE": "103.8284607598599"}, {"SEARCHVAL": "ADELPHI PARK ESTATE", "BLK_NO": "46", "ROAD_NAME": "GARDENIA ROAD", "BUILDING": "ADELPHI PARK ESTATE", "ADDRESS": "46 GARDENIA ROAD ADELPHI PARK ESTATE SINGAPORE 578839", "POSTAL": "578839", "X": "27440.70481151715", "Y": "37587.22660493478", "LATITUDE": "1.356200042218989", "LONGITUDE": "103.8282929463505"}, {"SEARCHVAL": "ADELPHI PARK ESTATE", "BLK_NO": "48", "ROAD_NAME": "GARDENIA ROAD", "BUILDING": "ADELPHI PARK ESTATE", "ADDRESS": "48 GARDENIA ROAD ADELPHI PARK ESTATE SINGAPORE 578840", "POSTAL": "578840", "X": "27435.31686827168", "Y": "37578.450736003", "LATITUDE": "1.356120676283807", "LONGITUDE": "103.8282445323275"}, {"SEARCHVAL": "ADELPHI PARK ESTATE", "BLK_NO": "5", "ROAD_NAME": "ORCHID DRIVE", "BUILDING": "ADELPHI PARK ESTATE", "ADDRESS": "5 ORCHID DRIVE ADELPHI PARK ESTATE SINGAPORE 576161", "POSTAL": "576161", "X": "27551.16494263522", "Y": "37425.95179578476", "LATITUDE": "1.354741532145032", "LONGITUDE": "103.8292855051892"}, {"SEARCHVAL": "ADELPHI PARK ESTATE", "BLK_NO": "50", "ROAD_NAME": "GARDENIA ROAD", "BUILDING": "ADELPHI PARK ESTATE", "ADDRESS": "50 GARDENIA ROAD ADELPHI PARK ESTATE SINGAPORE 578841", "POSTAL": "578841", "X": "27428.94703163393", "Y": "37572.39553505741", "LATITUDE": "1.356065915081119", "LONGITUDE": "103.8281872953028"}, {"SEARCHVAL": "ADELPHI PARK ESTATE", "BLK_NO": "56", "ROAD_NAME": "GARDENIA ROAD", "BUILDING": "ADELPHI PARK ESTATE", "ADDRESS": "56 GARDENIA ROAD ADELPHI PARK ESTATE SINGAPORE 578844", "POSTAL": "578844", "X": "27399.29733202048", "Y": "37553.27873056009", "LATITUDE": "1.355893028924508", "LONGITUDE": "103.8279208737873"}, {"SEARCHVAL": "ADELPHI PARK ESTATE", "BLK_NO": "58", "ROAD_NAME": "GARDENIA ROAD", "BUILDING": "ADELPHI PARK ESTATE", "ADDRESS": "58 GARDENIA ROAD ADELPHI PARK ESTATE SINGAPORE 578845", "POSTAL": "578845", "X": "27393.80012135394", "Y": "37547.39781266451", "LATITUDE": "1.355839843885718", "LONGITUDE": "103.8278714778848"}, {"SEARCHVAL": "ADELPHI PARK ESTATE", "BLK_NO": "5A", "ROAD_NAME": "GARDENIA ROAD", "BUILDING": "ADELPHI PARK ESTATE", "ADDRESS": "5A GARDENIA ROAD ADELPHI PARK ESTATE SINGAPORE 578881", "POSTAL": "578881", "X": "27585.5881756926", "Y": "37513.8635502886", "LATITUDE": "1.35553657525277", "LONGITUDE": "103.8295948190155"}, {"SEARCHVAL": "ADELPHI PARK ESTATE", "BLK_NO": "6", "ROAD_NAME": "GLADIOLA DRIVE", "BUILDING": "ADELPHI PARK ESTATE", "ADDRESS": "6 GLADIOLA DRIVE ADELPHI PARK ESTATE SINGAPORE 578788", "POSTAL": "578788", "X": "27539.60714332014", "Y": "37416.34531284496", "LATITUDE": "1.354654654356517", "LONGITUDE": "103.8291816510242"}, {"SEARCHVAL": "ADELPHI PARK ESTATE", "BLK_NO": "60", "ROAD_NAME": "GARDENIA ROAD", "BUILDING": "ADELPHI PARK ESTATE", "ADDRESS": "60 GARDENIA ROAD ADELPHI PARK ESTATE SINGAPORE 578846", "POSTAL": "578846", "X": "27388.01043116022", "Y": "37541.47294565663", "LATITUDE": "1.355786261379758", "LONGITUDE": "103.8278194538663"}, {"SEARCHVAL": "ADELPHI PARK ESTATE", "BLK_NO": "62", "ROAD_NAME": "GARDENIA ROAD", "BUILDING": "ADELPHI PARK ESTATE", "ADDRESS": "62 GARDENIA ROAD ADELPHI PARK ESTATE SINGAPORE 578847", "POSTAL": "578847", "X": "27384.05673632305", "Y": "37534.42752762139", "LATITUDE": "1.35572254504631", "LONGITUDE": "103.8277839274873"}, {"SEARCHVAL": "ADELPHI PARK ESTATE", "BLK_NO": "68", "ROAD_NAME": "GARDENIA ROAD", "BUILDING": "ADELPHI PARK ESTATE", "ADDRESS": "68 GARDENIA ROAD ADELPHI PARK ESTATE SINGAPORE 578850", "POSTAL": "578850", "X": "27362.67431270983", "Y": "37513.69943728112", "LATITUDE": "1.355535087127808", "LONGITUDE": "103.8275917929263"}, {"SEARCHVAL": "ADELPHI PARK ESTATE", "BLK_NO": "7", "ROAD_NAME": "CARNATION DRIVE", "BUILDING": "ADELPHI PARK ESTATE", "ADDRESS": "7 CARNATION DRIVE ADELPHI PARK ESTATE SINGAPORE 579541", "POSTAL": "579541", "X": "27565.59308511298", "Y": "37488.2725148797", "LATITUDE": "1.355305138754728", "LONGITUDE": "103.829415150489"}, {"SEARCHVAL": "ADELPHI PARK ESTATE", "BLK_NO": "7", "ROAD_NAME": "DAFFODIL DRIVE", "BUILDING": "ADELPHI PARK ESTATE", "ADDRESS": "7 DAFFODIL DRIVE ADELPHI PARK ESTATE SINGAPORE 579055", "POSTAL": "579055", "X": "27463.27389143221", "Y": "37370.5639280919", "LATITUDE": "1.354240622530797", "LONGITUDE": "103.8284957481603"}, {"SEARCHVAL": "ADELPHI PARK ESTATE", "BLK_NO": "7", "ROAD_NAME": "GLADIOLA DRIVE", "BUILDING": "ADELPHI PARK ESTATE", "ADDRESS": "7 GLADIOLA DRIVE ADELPHI PARK ESTATE SINGAPORE 578789", "POSTAL": "578789", "X": "27507.44913589582", "Y": "37405.66725247726", "LATITUDE": "1.354558085264495", "LONGITUDE": "103.8288926906848"}, {"SEARCHVAL": "ADELPHI PARK ESTATE", "BLK_NO": "7", "ROAD_NAME": "ORCHID DRIVE", "BUILDING": "ADELPHI PARK ESTATE", "ADDRESS": "7 ORCHID DRIVE ADELPHI PARK ESTATE SINGAPORE 576163", "POSTAL": "576163", "X": "27541.95509135351", "Y": "37441.85713694058", "LATITUDE": "1.354885374247284", "LONGITUDE": "103.8292027484666"}, {"SEARCHVAL": "ADELPHI PARK ESTATE", "BLK_NO": "70", "ROAD_NAME": "GARDENIA ROAD", "BUILDING": "ADELPHI PARK ESTATE", "ADDRESS": "70 GARDENIA ROAD ADELPHI PARK ESTATE SINGAPORE 578851", "POSTAL": "578851", "X": "27356.56378188916", "Y": "37508.38501496799", "LATITUDE": "1.355487025253221", "LONGITUDE": "103.8275368859456"}, {"SEARCHVAL": "ADELPHI PARK ESTATE", "BLK_NO": "74", "ROAD_NAME": "GARDENIA ROAD", "BUILDING": "ADELPHI PARK ESTATE", "ADDRESS": "74 GARDENIA ROAD ADELPHI PARK ESTATE SINGAPORE 578853", "POSTAL": "578853", "X": "27346.93166196626", "Y": "37495.29320397042", "LATITUDE": "1.355368627366403", "LONGITUDE": "103.8274503353689"}, {"SEARCHVAL": "ADELPHI PARK ESTATE", "BLK_NO": "76", "ROAD_NAME": "GARDENIA ROAD", "BUILDING": "ADELPHI PARK ESTATE", "ADDRESS": "76 GARDENIA ROAD ADELPHI PARK ESTATE SINGAPORE 578854", "POSTAL": "578854", "X": "27339.38924364001", "Y": "37489.00354722142", "LATITUDE": "1.3553117457838", "LONGITUDE": "103.8273825619765"}, {"SEARCHVAL": "ADELPHI PARK ESTATE", "BLK_NO": "79", "ROAD_NAME": "GARDENIA ROAD", "BUILDING": "ADELPHI PARK ESTATE", "ADDRESS": "79 GARDENIA ROAD ADELPHI PARK ESTATE SINGAPORE 578855", "POSTAL": "578855", "X": "27353.19053617585", "Y": "37441.27087636292", "LATITUDE": "1.354880068807885", "LONGITUDE": "103.8275065765893"}, {"SEARCHVAL": "ADELPHI PARK ESTATE", "BLK_NO": "8", "ROAD_NAME": "GLADIOLA DRIVE", "BUILDING": "ADELPHI PARK ESTATE", "ADDRESS": "8 GLADIOLA DRIVE ADELPHI PARK ESTATE SINGAPORE 578790", "POSTAL": "578790", "X": "27533.04837392829", "Y": "37427.597526595", "LATITUDE": "1.354756415269409", "LONGITUDE": "103.8291227160595"}, {"SEARCHVAL": "ADELPHI PARK ESTATE", "BLK_NO": "80", "ROAD_NAME": "GARDENIA ROAD", "BUILDING": "ADELPHI PARK ESTATE", "ADDRESS": "80 GARDENIA ROAD ADELPHI PARK ESTATE SINGAPORE 578877", "POSTAL": "578877", "X": "27282.91097183432", "Y": "37471.71689636074", "LATITUDE": "1.355155410160707", "LONGITUDE": "103.8268750684202"}, {"SEARCHVAL": "ADELPHI PARK ESTATE", "BLK_NO": "81", "ROAD_NAME": "GARDENIA ROAD", "BUILDING": "ADELPHI PARK ESTATE", "ADDRESS": "81 GARDENIA ROAD ADELPHI PARK ESTATE SINGAPORE 578856", "POSTAL": "578856", "X": "27341.20259854477", "Y": "37422.66175675951", "LATITUDE": "1.354711774292752", "LONGITUDE": "103.8273988576087"}, {"SEARCHVAL": "ADELPHI PARK ESTATE", "BLK_NO": "88", "ROAD_NAME": "GARDENIA ROAD", "BUILDING": "ADELPHI PARK ESTATE", "ADDRESS": "88 GARDENIA ROAD ADELPHI PARK ESTATE SINGAPORE 578861", "POSTAL": "578861", "X": "27318.26149484143", "Y": "37458.58576725237", "LATITUDE": "1.355036657735924", "LONGITUDE": "103.827192716118"}, {"SEARCHVAL": "ADELPHI PARK ESTATE", "BLK_NO": "9", "ROAD_NAME": "CARNATION DRIVE", "BUILDING": "ADELPHI PARK ESTATE", "ADDRESS": "9 CARNATION DRIVE ADELPHI PARK ESTATE SINGAPORE 579542", "POSTAL": "579542", "X": "27553.5150396945", "Y": "37503.0508881975", "LATITUDE": "1.355438788921895", "LONGITUDE": "103.8293066211821"}, {"SEARCHVAL": "ADELPHI PARK ESTATE", "BLK_NO": "9", "ROAD_NAME": "DAFFODIL DRIVE", "BUILDING": "ADELPHI PARK ESTATE", "ADDRESS": "9 DAFFODIL DRIVE ADELPHI PARK ESTATE SINGAPORE 579057", "POSTAL": "579057", "X": "27459.19001399726", "Y": "37379.19357239455", "LATITUDE": "1.354318665887832", "LONGITUDE": "103.8284590517281"}, {"SEARCHVAL": "ADELPHI PARK ESTATE", "BLK_NO": "9", "ROAD_NAME": "GARDENIA ROAD", "BUILDING": "ADELPHI PARK ESTATE", "ADDRESS": "9 GARDENIA ROAD ADELPHI PARK ESTATE SINGAPORE 578817", "POSTAL": "578817", "X": "27561.17429243866", "Y": "37535.11131164245", "LATITUDE": "1.35572873208976", "LONGITUDE": "103.8293754440778"}, {"SEARCHVAL": "ADELPHI PARK ESTATE", "BLK_NO": "9", "ROAD_NAME": "MARIGOLD DRIVE", "BUILDING": "ADELPHI PARK ESTATE", "ADDRESS": "9 MARIGOLD DRIVE ADELPHI PARK ESTATE SINGAPORE 576409", "POSTAL": "576409", "X": "27494.00188796595", "Y": "37295.92686374299", "LATITUDE": "1.353565632027103", "LONGITUDE": "103.8287718603165"}, {"SEARCHVAL": "ADELPHI PARK ESTATE", "BLK_NO": "90", "ROAD_NAME": "GARDENIA ROAD", "BUILDING": "ADELPHI PARK ESTATE", "ADDRESS": "90 GARDENIA ROAD ADELPHI PARK ESTATE SINGAPORE 578863", "POSTAL": "578863", "X": "27314.46528432425", "Y": "37453.04251898266", "LATITUDE": "1.354986526485072", "LONGITUDE": "103.8271586048306"}, {"SEARCHVAL": "ADELPHI PARK ESTATE", "BLK_NO": "91", "ROAD_NAME": "GARDENIA ROAD", "BUILDING": "ADELPHI PARK ESTATE", "ADDRESS": "91 GARDENIA ROAD ADELPHI PARK ESTATE SINGAPORE 578864", "POSTAL": "578864", "X": "27340.16047186498", "Y": "37374.88207972236", "LATITUDE": "1.354279671881123", "LONGITUDE": "103.8273894944785"}, {"SEARCHVAL": "ADELPHI PARK ESTATE", "BLK_NO": "93", "ROAD_NAME": "GARDENIA ROAD", "BUILDING": "ADELPHI PARK ESTATE", "ADDRESS": "93 GARDENIA ROAD ADELPHI PARK ESTATE SINGAPORE 578866", "POSTAL": "578866", "X": "27322.86359042581", "Y": "37357.00202503987", "LATITUDE": "1.354117970643361", "LONGITUDE": "103.8272340712295"}, {"SEARCHVAL": "ADELPHI PARK ESTATE", "BLK_NO": "94", "ROAD_NAME": "GARDENIA ROAD", "BUILDING": "ADELPHI PARK ESTATE", "ADDRESS": "94 GARDENIA ROAD ADELPHI PARK ESTATE SINGAPORE 578867", "POSTAL": "578867", "X": "27306.49681385886", "Y": "37441.49410274439", "LATITUDE": "1.354882086535823", "LONGITUDE": "103.8270870032228"}, {"SEARCHVAL": "ADELPHI PARK ESTATE", "BLK_NO": "98", "ROAD_NAME": "GARDENIA ROAD", "BUILDING": "ADELPHI PARK ESTATE", "ADDRESS": "98 GARDENIA ROAD ADELPHI PARK ESTATE SINGAPORE 578871", "POSTAL": "578871", "X": "27296.44463485852", "Y": "37430.11482399702", "LATITUDE": "1.354779176154429", "LONGITUDE": "103.8269966781461"}, {"SEARCHVAL": "ADELPHI PARK ESTATE", "BLK_NO": "11A", "ROAD_NAME": "JASMINE ROAD", "BUILDING": "ADELPHI PARK ESTATE", "ADDRESS": "11A JASMINE ROAD ADELPHI PARK ESTATE SINGAPORE 576583", "POSTAL": "576583", "X": "27648.76759748533", "Y": "37481.36469510011", "LATITUDE": "1.355242667992759", "LONGITUDE": "103.8301625276097"}, {"SEARCHVAL": "ADELPHI PARK ESTATE", "BLK_NO": "17A", "ROAD_NAME": "JASMINE ROAD", "BUILDING": "ADELPHI PARK ESTATE", "ADDRESS": "17A JASMINE ROAD ADELPHI PARK ESTATE SINGAPORE 576585", "POSTAL": "576585", "X": "27647.1478063371", "Y": "37467.44169500098", "LATITUDE": "1.35511675331776", "LONGITUDE": "103.8301479728986"}, {"SEARCHVAL": "ADELPHI PARK ESTATE", "BLK_NO": "3A", "ROAD_NAME": "JASMINE ROAD", "BUILDING": "ADELPHI PARK ESTATE", "ADDRESS": "3A JASMINE ROAD ADELPHI PARK ESTATE SINGAPORE 576579", "POSTAL": "576579", "X": "27638.00720820203", "Y": "37507.07241358608", "LATITUDE": "1.355475159316149", "LONGITUDE": "103.8300658382109"}, {"SEARCHVAL": "ADELPHI PARK ESTATE", "BLK_NO": "5A", "ROAD_NAME": "JASMINE ROAD", "BUILDING": "ADELPHI PARK ESTATE", "ADDRESS": "5A JASMINE ROAD ADELPHI PARK ESTATE SINGAPORE 576580", "POSTAL": "576580", "X": "27642.39270609431", "Y": "37501.32779242098", "LATITUDE": "1.355423207060934", "LONGITUDE": "103.8301052448306"}, {"SEARCHVAL": "ADMIRALTY CLOVER", "BLK_NO": "701A", "ROAD_NAME": "WOODLANDS DRIVE 40", "BUILDING": "ADMIRALTY CLOVER", "ADDRESS": "701A WOODLANDS DRIVE 40 ADMIRALTY CLOVER SINGAPORE 731701", "POSTAL": "731701", "X": "23845.70035223942", "Y": "46975.75826939754", "LATITUDE": "1.441106246045674", "LONGITUDE": "103.7959881438697"}, {"SEARCHVAL": "ADMIRALTY CLOVER", "BLK_NO": "709A", "ROAD_NAME": "WOODLANDS DRIVE 70", "BUILDING": "ADMIRALTY CLOVER", "ADDRESS": "709A WOODLANDS DRIVE 70 ADMIRALTY CLOVER SINGAPORE 731709", "POSTAL": "731709", "X": "24070.80749385897", "Y": "46976.47204899043", "LATITUDE": "1.441112733675648", "LONGITUDE": "103.7980109507445"}, {"SEARCHVAL": "ADMIRALTY CLOVER", "BLK_NO": "702", "ROAD_NAME": "WOODLANDS DRIVE 40", "BUILDING": "ADMIRALTY CLOVER", "ADDRESS": "702 WOODLANDS DRIVE 40 ADMIRALTY CLOVER SINGAPORE 730702", "POSTAL": "730702", "X": "23904.19023424294", "Y": "47059.67670827359", "LATITUDE": "1.441865182421918", "LONGITUDE": "103.7965137202473"}, {"SEARCHVAL": "ADMIRALTY CLOVER", "BLK_NO": "703", "ROAD_NAME": "WOODLANDS DRIVE 40", "BUILDING": "ADMIRALTY CLOVER", "ADDRESS": "703 WOODLANDS DRIVE 40 ADMIRALTY CLOVER SINGAPORE 730703", "POSTAL": "730703", "X": "23911.18465072475", "Y": "46959.20598035865", "LATITUDE": "1.4409565628088", "LONGITUDE": "103.7965765864834"}, {"SEARCHVAL": "ADMIRALTY CLOVER", "BLK_NO": "711", "ROAD_NAME": "WOODLANDS DRIVE 70", "BUILDING": "ADMIRALTY CLOVER", "ADDRESS": "711 WOODLANDS DRIVE 70 ADMIRALTY CLOVER SINGAPORE 730711", "POSTAL": "730711", "X": "24000.41018706188", "Y": "46988.66205568053", "LATITUDE": "1.441222965694044", "LONGITUDE": "103.797378360624"}, {"SEARCHVAL": "ADMIRALTY CLOVER", "BLK_NO": "712", "ROAD_NAME": "WOODLANDS DRIVE 70", "BUILDING": "ADMIRALTY CLOVER", "ADDRESS": "712 WOODLANDS DRIVE 70 ADMIRALTY CLOVER SINGAPORE 730712", "POSTAL": "730712", "X": "23984.36655148771", "Y": "47064.34493940324", "LATITUDE": "1.441907411812507", "LONGITUDE": "103.7972341821407"}, {"SEARCHVAL": "ADMIRALTY CLOVER", "BLK_NO": "713", "ROAD_NAME": "WOODLANDS DRIVE 70", "BUILDING": "ADMIRALTY CLOVER", "ADDRESS": "713 WOODLANDS DRIVE 70 ADMIRALTY CLOVER SINGAPORE 730713", "POSTAL": "730713", "X": "24048.67024726793", "Y": "47069.5790002197", "LATITUDE": "1.44195475589683", "LONGITUDE": "103.7978120129657"}, {"SEARCHVAL": "ADMIRALTY FLORA", "BLK_NO": "692", "ROAD_NAME": "WOODLANDS DRIVE 73", "BUILDING": "ADMIRALTY FLORA", "ADDRESS": "692 WOODLANDS DRIVE 73 ADMIRALTY FLORA SINGAPORE 730692", "POSTAL": "730692", "X": "24896.46896472946", "Y": "46811.2462085858", "LATITUDE": "1.439618594878613", "LONGITUDE": "103.8054303420032"}, {"SEARCHVAL": "ADMIRALTY INDUSTRIAL PARK", "BLK_NO": "21", "ROAD_NAME": "WOODLANDS INDUSTRIAL PARK E1", "BUILDING": "ADMIRALTY INDUSTRIAL PARK", "ADDRESS": "21 WOODLANDS INDUSTRIAL PARK E1 ADMIRALTY INDUSTRIAL PARK SINGAPORE 757720", "POSTAL": "757720", "X": "23879.35038965382", "Y": "48428.36581416987", "LATITUDE": "1.45424310330804", "LONGITUDE": "103.7962903090298"}, {"SEARCHVAL": "ADMIRALTY INDUSTRIAL PARK", "BLK_NO": "23", "ROAD_NAME": "WOODLANDS INDUSTRIAL PARK E1", "BUILDING": "ADMIRALTY INDUSTRIAL PARK", "ADDRESS": "23 WOODLANDS INDUSTRIAL PARK E1 ADMIRALTY INDUSTRIAL PARK SINGAPORE 757741", "POSTAL": "757741", "X": "23950.59907429758", "Y": "48466.38297680952", "LATITUDE": "1.454586927109963", "LONGITUDE": "103.7969305460474"}, {"SEARCHVAL": "ADMIRALTY INDUSTRIAL PARK", "BLK_NO": "25", "ROAD_NAME": "WOODLANDS INDUSTRIAL PARK E1", "BUILDING": "ADMIRALTY INDUSTRIAL PARK", "ADDRESS": "25 WOODLANDS INDUSTRIAL PARK E1 ADMIRALTY INDUSTRIAL PARK SINGAPORE 757743", "POSTAL": "757743", "X": "23989.31939246785", "Y": "48489.57911854424", "LATITUDE": "1.454796710156884", "LONGITUDE": "103.7972784845546"}, {"SEARCHVAL": "ADMIRALTY PLACE", "BLK_NO": "677", "ROAD_NAME": "WOODLANDS AVENUE 6", "BUILDING": "ADMIRALTY PLACE", "ADDRESS": "677 WOODLANDS AVENUE 6 ADMIRALTY PLACE SINGAPORE 730677", "POSTAL": "730677", "X": "24482.05904264562", "Y": "46785.54944710992", "LATITUDE": "1.439386153805416", "LONGITUDE": "103.801706470491"}, {"SEARCHVAL": "ADMIRALTY VISTA", "BLK_NO": "717C", "ROAD_NAME": "WOODLANDS DRIVE 70", "BUILDING": "ADMIRALTY VISTA", "ADDRESS": "717C WOODLANDS DRIVE 70 ADMIRALTY VISTA SINGAPORE 733717", "POSTAL": "733717", "X": "24145.71793863643", "Y": "46958.6230189912", "LATITUDE": "1.44095132395483", "LONGITUDE": "103.7986840965221"},